[{"nombre": "JAN MAYEN(NOR-NAVY)", "pais": "NO", "lat": 70.933, "lon": -8.66}, {"nombre": "SORSTOKKEN", "pais": "NO", "lat": 59.792, "lon": 5.34}, {"nombre": "BRINGELAND", "pais": "NO", "lat": 61.383, "lon": 5.86}, {"nombre": "RORVIK/RYUM", "pais": "NO", "lat": 64.85, "lon": 11.23}, {"nombre": "FRIGG", "pais": "NO", "lat": 59.98, "lon": 2.25}, {"nombre": "VERLEGENHUKEN", "pais": "NO", "lat": 80.05, "lon": 16.25}, {"nombre": "HORNSUND", "pais": "NO", "lat": 77.0, "lon": 15.5}, {"nombre": "NY-ALESUND II", "pais": "NO", "lat": 78.917, "lon": 11.93}, {"nombre": "ISFJORD RADIO", "pais": "SV", "lat": 78.067, "lon": 13.63}, {"nombre": "EDGEOYA", "pais": "NO", "lat": 78.25, "lon": 22.81}, {"nombre": "NY-ALESUND", "pais": "SV", "lat": 78.917, "lon": 11.93}, {"nombre": "LONGYEARBYEN", "pais": "SV", "lat": 78.217, "lon": 15.58}, {"nombre": "LONGYEAR", "pais": "SV", "lat": 78.246, "lon": 15.46}, {"nombre": "KARL XII OYA", "pais": "SV", "lat": 80.65, "lon": 25.0}, {"nombre": "ANDOYA", "pais": "NO", "lat": 69.293, "lon": 16.14}, {"nombre": "KVITOYA", "pais": "SV", "lat": 80.067, "lon": 31.5}, {"nombre": "SENJA-LAUKHELLA", "pais": "NO", "lat": 69.233, "lon": 17.9}, {"nombre": "HEKKINGEN FYR", "pais": "NO", "lat": 69.6, "lon": 17.83}, {"nombre": "KONGSOYA", "pais": "NO", "lat": 78.933, "lon": 28.9}, {"nombre": "AKSELOYA", "pais": "SV", "lat": 77.683, "lon": 14.78}, {"nombre": "GIBOSTAD", "pais": "NO", "lat": 69.35, "lon": 18.08}, {"nombre": "SVARTTANGEN", "pais": "NO", "lat": 77.517, "lon": 20.81}, {"nombre": "SORKAPPOYA", "pais": "SV", "lat": 76.483, "lon": 16.55}, {"nombre": "BARDUFOSS", "pais": "NO", "lat": 69.056, "lon": 18.54}, {"nombre": "DRAUGEN", "pais": "NO", "lat": 64.35, "lon": 7.8}, {"nombre": "PYRAMIDEN", "pais": "NO", "lat": 78.65, "lon": 16.36}, {"nombre": "TROMSO", "pais": "NO", "lat": 69.683, "lon": 18.91}, {"nombre": "TROMSO", "pais": "NO", "lat": 69.65, "lon": 18.93}, {"nombre": "TROMSO-HOLT", "pais": "NO", "lat": 69.65, "lon": 18.9}, {"nombre": "BJORNOYA ISLAND", "pais": "NO", "lat": 74.517, "lon": 19.01}, {"nombre": "KISTEFJELL", "pais": "NO", "lat": 69.283, "lon": 18.13}, {"nombre": "TROMSO/SKATTURA", "pais": "NO", "lat": 69.7, "lon": 19.01}, {"nombre": "OVERBYGD", "pais": "NO", "lat": 69.017, "lon": 19.28}, {"nombre": "TORSVAG FYR", "pais": "NO", "lat": 70.25, "lon": 19.5}, {"nombre": "FUGLOYKALVEN FYR", "pais": "NO", "lat": 70.317, "lon": 20.15}, {"nombre": "LYNGEN GJERDVASSBU", "pais": "NO", "lat": 69.567, "lon": 20.1}, {"nombre": "NORDNESFJELLET", "pais": "NO", "lat": 69.567, "lon": 20.43}, {"nombre": "SKIBOTIN", "pais": "NO", "lat": 69.367, "lon": 20.26}, {"nombre": "SKIBOTN 2", "pais": "NO", "lat": 69.383, "lon": 20.28}, {"nombre": "SKJERVOY", "pais": "NO", "lat": 70.033, "lon": 20.98}, {"nombre": "NORDREISA-OYENG", "pais": "NO", "lat": 69.733, "lon": 21.01}, {"nombre": "HASVIK-SLUSKFJELLET", "pais": "NO", "lat": 70.6, "lon": 22.45}, {"nombre": "ROGNSUNDET", "pais": "NO", "lat": 70.417, "lon": 22.81}, {"nombre": "LOPPA", "pais": "NO", "lat": 70.333, "lon": 21.46}, {"nombre": "HASVIK", "pais": "NO", "lat": 70.483, "lon": 22.15}, {"nombre": "HASVIK", "pais": "NO", "lat": 70.487, "lon": 22.14}, {"nombre": "NORDSTRAUM I KVAENANGEN", "pais": "NO", "lat": 69.833, "lon": 21.88}, {"nombre": "SORKJOSEN", "pais": "NO", "lat": 69.787, "lon": 20.95}, {"nombre": "KAUTOKEINO II", "pais": "NO", "lat": 69.017, "lon": 23.06}, {"nombre": "ALTA", "pais": "NO", "lat": 69.976, "lon": 23.37}, {"nombre": "SUOLOVUOPMI", "pais": "NO", "lat": 69.583, "lon": 23.53}, {"nombre": "HAMMERFEST AP", "pais": "NO", "lat": 70.683, "lon": 23.68}, {"nombre": "HAMMERFEST RADIO", "pais": "NO", "lat": 70.683, "lon": 23.68}, {"nombre": "FRUHOLMEN FYR", "pais": "NO", "lat": 71.1, "lon": 23.98}, {"nombre": "CUOVDDATMOHKKI", "pais": "NO", "lat": 69.367, "lon": 24.43}, {"nombre": "SUOLOVUOPMI LULIT", "pais": "NO", "lat": 69.567, "lon": 23.53}, {"nombre": "BANAK", "pais": "NO", "lat": 70.069, "lon": 24.97}, {"nombre": "BRENNELV", "pais": "NO", "lat": 70.067, "lon": 25.11}, {"nombre": "HOPEN ISLAND", "pais": "NO", "lat": 76.5, "lon": 25.06}, {"nombre": "KISTRAND III", "pais": "NO", "lat": 70.45, "lon": 25.21}, {"nombre": "KARASJOK", "pais": "NO", "lat": 69.467, "lon": 25.51}, {"nombre": "HELNES FYR", "pais": "NO", "lat": 71.067, "lon": 26.23}, {"nombre": "LEVAJOK-EVJEN", "pais": "NO", "lat": 69.9, "lon": 26.41}, {"nombre": "LEVAJOK-EVJEN", "pais": "NO", "lat": 69.9, "lon": 26.41}, {"nombre": "HONNINGSVAG/VALAN", "pais": "NO", "lat": 71.017, "lon": 25.98}, {"nombre": "MEHAMN", "pais": "NO", "lat": 71.033, "lon": 27.83}, {"nombre": "RUSTEFJELBMA", "pais": "NO", "lat": 70.4, "lon": 28.2}, {"nombre": "TANABRU", "pais": "NO", "lat": 70.217, "lon": 28.16}, {"nombre": "SLETTNES FYR", "pais": "NO", "lat": 71.1, "lon": 28.23}, {"nombre": "NYRUD", "pais": "NO", "lat": 69.15, "lon": 29.25}, {"nombre": "BERLEVAG", "pais": "NO", "lat": 70.867, "lon": 29.03}, {"nombre": "PASVIK", "pais": "NO", "lat": 69.45, "lon": 30.03}, {"nombre": "BUGOYFJORD", "pais": "NO", "lat": 69.85, "lon": 29.41}, {"nombre": "BATSFJORD", "pais": "NO", "lat": 70.6, "lon": 29.69}, {"nombre": "HEIMDAL OIL PLATFORM", "pais": "NO", "lat": 59.567, "lon": 2.21}, {"nombre": "NORNE OIL PLATFORM", "pais": "NO", "lat": 66.017, "lon": 8.08}, {"nombre": "TROLL A  OIL PLATFORM", "pais": "NO", "lat": 60.633, "lon": 3.71}, {"nombre": "SNORRE A  OIL PLATFORM", "pais": "NO", "lat": 61.45, "lon": 2.13}, {"nombre": "SNORRE B  OIL PLATFORM", "pais": "NO", "lat": 61.533, "lon": 2.2}, {"nombre": "VADSO", "pais": "NO", "lat": 70.067, "lon": 29.85}, {"nombre": "NARVIK III/FRAMNES", "pais": "NO", "lat": 68.467, "lon": 17.5}, {"nombre": "ROROS", "pais": "NO", "lat": 62.578, "lon": 11.34}, {"nombre": "SANDANE/ANDA", "pais": "NO", "lat": 61.833, "lon": 6.11}, {"nombre": "GEITERYGGEN", "pais": "NO", "lat": 59.185, "lon": 9.56}, {"nombre": "BATSFJORD", "pais": "NO", "lat": 70.6, "lon": 29.73}, {"nombre": "SLEIPNER A OIL PLATFORM", "pais": "NO", "lat": 58.367, "lon": 1.9}, {"nombre": "TROLL C OIL PLATFORM", "pais": "NO", "lat": 60.886, "lon": 3.61}, {"nombre": "HOYBUKTMOEN", "pais": "NO", "lat": 69.726, "lon": 29.89}, {"nombre": "MAKKAUR FYR", "pais": "NO", "lat": 70.7, "lon": 30.08}, {"nombre": "SVARTNES", "pais": "NO", "lat": 70.35, "lon": 31.05}, {"nombre": "VARDO", "pais": "NO", "lat": 70.367, "lon": 31.1}, {"nombre": "VARDO AP / SVARTNES", "pais": "NO", "lat": 70.355, "lon": 31.04}, {"nombre": "SKLINNA FYR", "pais": "NO", "lat": 65.2, "lon": 11.0}, {"nombre": "HEIDRUN", "pais": "NO", "lat": 65.333, "lon": 7.31}, {"nombre": "LEKA", "pais": "NO", "lat": 65.1, "lon": 11.7}, {"nombre": "ROTVAER", "pais": "NO", "lat": 68.367, "lon": 15.95}, {"nombre": "ROTVAER", "pais": "NO", "lat": 68.367, "lon": 15.95}, {"nombre": "SKOMVAER (LGT-H)", "pais": "NO", "lat": 67.417, "lon": 11.88}, {"nombre": "ROEST III", "pais": "NO", "lat": 67.517, "lon": 12.1}, {"nombre": "ROST (NOR-AFB)", "pais": "NO", "lat": 67.517, "lon": 12.1}, {"nombre": "VEGA-VALLSJO", "pais": "NO", "lat": 65.7, "lon": 11.85}, {"nombre": "SKALVAER", "pais": "NO", "lat": 65.867, "lon": 12.18}, {"nombre": "YTTERHOLMEN FYR", "pais": "NO", "lat": 66.0, "lon": 11.68}, {"nombre": "BRONNOYSUND", "pais": "NO", "lat": 65.467, "lon": 12.21}, {"nombre": "BRONNOY", "pais": "NO", "lat": 65.461, "lon": 12.21}, {"nombre": "GLOMFJORD", "pais": "NO", "lat": 66.8, "lon": 13.98}, {"nombre": "DAGALI", "pais": "NO", "lat": 60.417, "lon": 8.51}, {"nombre": "REIPA", "pais": "NO", "lat": 66.9, "lon": 13.63}, {"nombre": "MYKEN", "pais": "NO", "lat": 66.767, "lon": 12.48}, {"nombre": "STOKKA", "pais": "NO", "lat": 65.95, "lon": 12.46}, {"nombre": "TJOTTA", "pais": "NO", "lat": 65.817, "lon": 12.41}, {"nombre": "SOLVAER III", "pais": "NO", "lat": 66.367, "lon": 12.61}, {"nombre": "KJAERSTAD", "pais": "NO", "lat": 65.784, "lon": 13.21}, {"nombre": "SNASA", "pais": "NO", "lat": 64.167, "lon": 12.46}, {"nombre": "GLAPEN LIGHTHOUSE", "pais": "NO", "lat": 67.883, "lon": 13.05}, {"nombre": "MAJAVATN V", "pais": "NO", "lat": 65.167, "lon": 13.36}, {"nombre": "LAKSFORS", "pais": "NO", "lat": 65.617, "lon": 13.28}, {"nombre": "MAJAVATN III", "pais": "NO", "lat": 65.183, "lon": 13.41}, {"nombre": "SELJELIA", "pais": "NO", "lat": 66.117, "lon": 13.58}, {"nombre": "STOTT", "pais": "NO", "lat": 66.933, "lon": 13.45}, {"nombre": "TENNHOLMEN (LGT-H)", "pais": "NO", "lat": 67.3, "lon": 13.5}, {"nombre": "VAEROY HELIPORT", "pais": "NO", "lat": 67.65, "lon": 12.71}, {"nombre": "LEKNES", "pais": "NO", "lat": 68.15, "lon": 13.61}, {"nombre": "DRAG-AJLUOKTA", "pais": "NO", "lat": 68.05, "lon": 16.08}, {"nombre": "HELLIGVAER II", "pais": "NO", "lat": 67.4, "lon": 13.88}, {"nombre": "KVALNES I LOFOTEN", "pais": "NO", "lat": 68.35, "lon": 13.96}, {"nombre": "SKAMDAL", "pais": "NO", "lat": 66.233, "lon": 13.88}, {"nombre": "VARNTRESK", "pais": "NO", "lat": 65.833, "lon": 14.18}, {"nombre": "STORFORSHEI", "pais": "NO", "lat": 66.383, "lon": 14.51}, {"nombre": "RANA-BASMOEN", "pais": "NO", "lat": 66.333, "lon": 14.1}, {"nombre": "HJARTASEN", "pais": "NO", "lat": 66.5, "lon": 14.95}, {"nombre": "HATTFJELLDAL-KRUTA", "pais": "NO", "lat": 65.683, "lon": 14.16}, {"nombre": "MOIRANA", "pais": "NO", "lat": 66.367, "lon": 14.3}, {"nombre": "BODO", "pais": "NO", "lat": 67.269, "lon": 14.36}, {"nombre": "BODO-VAGONES", "pais": "NO", "lat": 67.283, "lon": 14.45}, {"nombre": "LITLOY FYR", "pais": "NO", "lat": 68.583, "lon": 14.3}, {"nombre": "BO I VESTERALEN II", "pais": "NO", "lat": 68.633, "lon": 14.46}, {"nombre": "BO I VESTERALEN", "pais": "NO", "lat": 68.6, "lon": 14.43}, {"nombre": "SETSA", "pais": "NO", "lat": 67.167, "lon": 15.48}, {"nombre": "SKROVA FYR", "pais": "NO", "lat": 68.15, "lon": 14.65}, {"nombre": "SVOLVAER/HELLE", "pais": "NO", "lat": 68.25, "lon": 14.66}, {"nombre": "STORKMARKNES/SKAGEN", "pais": "NO", "lat": 68.583, "lon": 15.01}, {"nombre": "BOLNA", "pais": "NO", "lat": 66.5, "lon": 15.25}, {"nombre": "GROTOY", "pais": "NO", "lat": 67.833, "lon": 14.78}, {"nombre": "SORTLAND", "pais": "NO", "lat": 68.7, "lon": 15.41}, {"nombre": "KLEIVA I SORTLAND", "pais": "NO", "lat": 68.65, "lon": 15.28}, {"nombre": "SALTDAL-NORDNES", "pais": "NO", "lat": 66.933, "lon": 15.31}, {"nombre": "OVRE SALTDAL", "pais": "NO", "lat": 66.967, "lon": 15.31}, {"nombre": "FAUSKE-VETEN", "pais": "NO", "lat": 67.233, "lon": 15.31}, {"nombre": "FINNOY I HAMAROY", "pais": "NO", "lat": 68.0, "lon": 15.61}, {"nombre": "LODINGEN", "pais": "NO", "lat": 68.4, "lon": 16.0}, {"nombre": "KONGSVIK", "pais": "NO", "lat": 68.567, "lon": 16.26}, {"nombre": "HARSTAD", "pais": "NO", "lat": 68.8, "lon": 16.53}, {"nombre": "EVENSKJER", "pais": "NO", "lat": 68.583, "lon": 16.58}, {"nombre": "EVENES", "pais": "NO", "lat": 68.491, "lon": 16.67}, {"nombre": "SANDSOY I SENJA", "pais": "NO", "lat": 68.933, "lon": 16.68}, {"nombre": "SANDSOY", "pais": "NO", "lat": 68.933, "lon": 16.68}, {"nombre": "LILAND", "pais": "NO", "lat": 68.483, "lon": 16.88}, {"nombre": "SKJOMEN-SLETTJORD", "pais": "NO", "lat": 68.283, "lon": 17.31}, {"nombre": "STRAUMSNES", "pais": "NO", "lat": 68.417, "lon": 17.65}, {"nombre": "NARVIK III/FRAMNES", "pais": "NO", "lat": 68.467, "lon": 17.5}, {"nombre": "NARVIK III", "pais": "NO", "lat": 68.467, "lon": 17.5}, {"nombre": "TENNEVOLL", "pais": "NO", "lat": 68.75, "lon": 17.81}, {"nombre": "DIVIDALEN II", "pais": "NO", "lat": 68.783, "lon": 19.7}, {"nombre": "SIHCCAJAVRI", "pais": "NO", "lat": 68.75, "lon": 23.53}, {"nombre": "KRAKENES", "pais": "NO", "lat": 62.033, "lon": 4.98}, {"nombre": "SVINOY LH", "pais": "NO", "lat": 62.333, "lon": 5.26}, {"nombre": "FISKABYGD", "pais": "NO", "lat": 62.1, "lon": 5.58}, {"nombre": "ORSTA-VOLDA/HOVDEN", "pais": "NO", "lat": 62.183, "lon": 6.06}, {"nombre": "ORSTA-VOLDA/HOVD", "pais": "NO", "lat": 62.183, "lon": 6.05}, {"nombre": "VIGRA", "pais": "NO", "lat": 62.56, "lon": 6.11}, {"nombre": "ONA II", "pais": "NO", "lat": 62.867, "lon": 6.53}, {"nombre": "REKDAL", "pais": "NO", "lat": 62.65, "lon": 6.76}, {"nombre": "HJELVIK MYRBO", "pais": "NO", "lat": 62.62, "lon": 7.23}, {"nombre": "HJELVIK I ROMSDAL", "pais": "NO", "lat": 62.617, "lon": 7.21}, {"nombre": "GJERMUNDNES", "pais": "NO", "lat": 62.617, "lon": 7.16}, {"nombre": "ARO", "pais": "NO", "lat": 62.745, "lon": 7.26}, {"nombre": "TAFJORD", "pais": "NO", "lat": 62.233, "lon": 7.41}, {"nombre": "MANNEN", "pais": "NO", "lat": 62.45, "lon": 7.76}, {"nombre": "TAGDALEN", "pais": "NO", "lat": 63.05, "lon": 9.08}, {"nombre": "KVERNBERGET", "pais": "NO", "lat": 63.112, "lon": 7.82}, {"nombre": "AALESUND", "pais": "NO", "lat": 62.467, "lon": 6.21}, {"nombre": "VEIHOLMEN", "pais": "NO", "lat": 63.517, "lon": 7.95}, {"nombre": "INNERDALEN", "pais": "NO", "lat": 62.717, "lon": 8.78}, {"nombre": "TINGVOLL-HANEM", "pais": "NO", "lat": 62.833, "lon": 8.3}, {"nombre": "SULA", "pais": "NO", "lat": 63.85, "lon": 8.46}, {"nombre": "BJORLI", "pais": "NO", "lat": 62.267, "lon": 8.2}, {"nombre": "LESJASKOG", "pais": "NO", "lat": 62.233, "lon": 8.36}, {"nombre": "VINJEORA II", "pais": "NO", "lat": 62.45, "lon": 7.85}, {"nombre": "DOMBAAS", "pais": "NO", "lat": 62.083, "lon": 9.11}, {"nombre": "ORKDAL-THAMSHAMN", "pais": "NO", "lat": 63.317, "lon": 9.85}, {"nombre": "DOMBAS-KIRKENAER", "pais": "NO", "lat": 62.083, "lon": 9.13}, {"nombre": "KJOREMSGRENDE", "pais": "NO", "lat": 62.1, "lon": 9.05}, {"nombre": "HITRA", "pais": "NO", "lat": 63.517, "lon": 9.11}, {"nombre": "FOKSTUA II", "pais": "NO", "lat": 62.117, "lon": 9.28}, {"nombre": "HJERKINN II", "pais": "NO", "lat": 62.217, "lon": 9.55}, {"nombre": "HALTEN FYR", "pais": "NO", "lat": 64.167, "lon": 9.4}, {"nombre": "ORLAND", "pais": "NO", "lat": 63.699, "lon": 9.6}, {"nombre": "AFJORD II", "pais": "NO", "lat": 63.967, "lon": 10.21}, {"nombre": "SONGLI", "pais": "NO", "lat": 63.333, "lon": 9.65}, {"nombre": "OPPDAL-SETER", "pais": "NO", "lat": 62.6, "lon": 9.66}, {"nombre": "VALLERSUND", "pais": "NO", "lat": 63.85, "lon": 9.73}, {"nombre": "FOLLDAL-FREDHEIM", "pais": "NO", "lat": 62.133, "lon": 10.0}, {"nombre": "BERKAK-LYNGHOLT", "pais": "NO", "lat": 62.817, "lon": 10.01}, {"nombre": "SOKNEDAL", "pais": "NO", "lat": 62.95, "lon": 10.18}, {"nombre": "KOTSOY", "pais": "NO", "lat": 62.983, "lon": 10.55}, {"nombre": "TRONDHEIM/VOLL", "pais": "NO", "lat": 63.417, "lon": 10.45}, {"nombre": "TRONDHEIM (TYHOLT)", "pais": "NO", "lat": 63.417, "lon": 10.43}, {"nombre": "BUHOLMRASA LH", "pais": "NO", "lat": 64.4, "lon": 10.45}, {"nombre": "NORDOYAN FYR", "pais": "NO", "lat": 64.8, "lon": 10.55}, {"nombre": "TYNSET-HANSMOEN", "pais": "NO", "lat": 62.267, "lon": 10.73}, {"nombre": "KVITHAMAR", "pais": "NO", "lat": 63.483, "lon": 10.88}, {"nombre": "VAERNES", "pais": "NO", "lat": 63.458, "lon": 10.94}, {"nombre": "FROSTA", "pais": "NO", "lat": 63.567, "lon": 10.7}, {"nombre": "SELBU", "pais": "NO", "lat": 63.233, "lon": 11.01}, {"nombre": "SELBU-STUBBE", "pais": "NO", "lat": 63.2, "lon": 11.11}, {"nombre": "STEINKJER", "pais": "NO", "lat": 64.017, "lon": 11.45}, {"nombre": "LEVANGER-EGGEN", "pais": "NO", "lat": 63.717, "lon": 11.23}, {"nombre": "VERDAL-REPPE", "pais": "NO", "lat": 63.783, "lon": 11.68}, {"nombre": "NAMDALSEID-VENGSTAD", "pais": "NO", "lat": 64.133, "lon": 11.33}, {"nombre": "NAMSSKOGAN", "pais": "NO", "lat": 64.733, "lon": 12.85}, {"nombre": "RORVIK/RYUM", "pais": "NO", "lat": 64.85, "lon": 11.23}, {"nombre": "RORVIK/RYUM", "pais": "NO", "lat": 64.85, "lon": 11.23}, {"nombre": "SOLENDET", "pais": "NO", "lat": 62.683, "lon": 11.81}, {"nombre": "ROROS", "pais": "NO", "lat": 62.567, "lon": 11.38}, {"nombre": "ROROS LUFTHAVN", "pais": "NO", "lat": 62.583, "lon": 11.35}, {"nombre": "ROROS/AIRPORT", "pais": "NO", "lat": 62.583, "lon": 11.38}, {"nombre": "NAMSOS AIRPORT", "pais": "NO", "lat": 64.467, "lon": 11.58}, {"nombre": "GARTLAND", "pais": "NO", "lat": 64.533, "lon": 12.38}, {"nombre": "MERAKER-UTSYN", "pais": "NO", "lat": 63.417, "lon": 11.7}, {"nombre": "MERAKER-EGGE", "pais": "NO", "lat": 63.417, "lon": 11.73}, {"nombre": "HOYLANDET", "pais": "NO", "lat": 64.55, "lon": 12.15}, {"nombre": "BERG I SNASA", "pais": "NO", "lat": 64.25, "lon": 12.41}, {"nombre": "NORDLI-HOLAND", "pais": "NO", "lat": 64.45, "lon": 13.71}, {"nombre": "GULLFAKS C", "pais": "NO", "lat": 61.2, "lon": 2.26}, {"nombre": "STATFJORD OIL PLATFORM HELIPO", "pais": "FO", "lat": 61.25, "lon": 1.85}, {"nombre": "YTTEROYANE FYR", "pais": "NO", "lat": 61.567, "lon": 4.68}, {"nombre": "HELLISOY FYR", "pais": "NO", "lat": 60.75, "lon": 4.71}, {"nombre": "FEDJE", "pais": "NO", "lat": 60.75, "lon": 4.71}, {"nombre": "FURUNESET", "pais": "NO", "lat": 61.3, "lon": 5.05}, {"nombre": "KINN ISLAND", "pais": "NO", "lat": 61.567, "lon": 4.8}, {"nombre": "FLORO", "pais": "NO", "lat": 61.584, "lon": 5.02}, {"nombre": "FLESLAND", "pais": "NO", "lat": 60.293, "lon": 5.21}, {"nombre": "FOSSMARK", "pais": "NO", "lat": 60.517, "lon": 5.71}, {"nombre": "EVANGER", "pais": "NO", "lat": 60.633, "lon": 6.1}, {"nombre": "BERGEN-FREDRIKSBERG", "pais": "NO", "lat": 60.4, "lon": 5.31}, {"nombre": "BERGEN/FLORIDA", "pais": "NO", "lat": 60.383, "lon": 5.33}, {"nombre": "SANDANE", "pais": "NO", "lat": 61.783, "lon": 6.18}, {"nombre": "TAKLE", "pais": "NO", "lat": 61.033, "lon": 5.38}, {"nombre": "SANDANE/ANDA", "pais": "NO", "lat": 61.833, "lon": 6.11}, {"nombre": "STRYN", "pais": "NO", "lat": 61.9, "lon": 6.55}, {"nombre": "FORDE-TEFRE", "pais": "NO", "lat": 61.467, "lon": 5.91}, {"nombre": "BRINGELAND", "pais": "NO", "lat": 61.393, "lon": 5.76}, {"nombre": "MODALEN II", "pais": "NO", "lat": 60.833, "lon": 5.95}, {"nombre": "MODALEN III", "pais": "NO", "lat": 60.85, "lon": 5.98}, {"nombre": "KVAMSKOGEN-JONSHOGDI", "pais": "NO", "lat": 60.383, "lon": 5.96}, {"nombre": "KVAMSKOGEN", "pais": "NO", "lat": 60.4, "lon": 5.91}, {"nombre": "KVAMSOY", "pais": "NO", "lat": 60.35, "lon": 6.26}, {"nombre": "OMASTRAND", "pais": "NO", "lat": 60.217, "lon": 5.98}, {"nombre": "FJAERLAND BREMUSEET", "pais": "NO", "lat": 61.43, "lon": 6.77}, {"nombre": "BULKEN", "pais": "NO", "lat": 60.65, "lon": 6.21}, {"nombre": "VOSSEVANGEN", "pais": "NO", "lat": 60.633, "lon": 6.43}, {"nombre": "VANGSNES", "pais": "NO", "lat": 61.167, "lon": 6.65}, {"nombre": "VANGSNES", "pais": "NO", "lat": 61.167, "lon": 6.65}, {"nombre": "FET I EIDFJORD", "pais": "NO", "lat": 60.42, "lon": 7.28}, {"nombre": "EIDFJORD-BU", "pais": "NO", "lat": 60.467, "lon": 6.86}, {"nombre": "ULLENSVANG", "pais": "NO", "lat": 60.317, "lon": 6.65}, {"nombre": "MJOLFJELL", "pais": "NO", "lat": 60.7, "lon": 6.95}, {"nombre": "KLEVAVATNET", "pais": "NO", "lat": 60.717, "lon": 7.21}, {"nombre": "MIDTSTOVA", "pais": "NO", "lat": 60.65, "lon": 7.26}, {"nombre": "SOGNDAL HAUKASEN", "pais": "NO", "lat": 61.156, "lon": 7.13}, {"nombre": "SOGNDAL/HAUKASEN", "pais": "NO", "lat": 61.167, "lon": 7.13}, {"nombre": "FINSEVATN", "pais": "NO", "lat": 60.6, "lon": 7.53}, {"nombre": "FINSE III", "pais": "NO", "lat": 60.6, "lon": 7.5}, {"nombre": "SANDHAUG", "pais": "NO", "lat": 60.183, "lon": 7.48}, {"nombre": "LAERDAL IV", "pais": "NO", "lat": 61.1, "lon": 7.5}, {"nombre": "FANNARAKI", "pais": "FO", "lat": 61.517, "lon": 7.9}, {"nombre": "HOLLEKOLTEN", "pais": "NO", "lat": 60.867, "lon": 8.51}, {"nombre": "HEMSEDAL II", "pais": "NO", "lat": 60.85, "lon": 8.6}, {"nombre": "GEILO-OLDEBRATEN", "pais": "NO", "lat": 60.533, "lon": 8.2}, {"nombre": "HAUGASTOL", "pais": "NO", "lat": 60.517, "lon": 7.86}, {"nombre": "BRATA-SLETTOM", "pais": "NO", "lat": 61.9, "lon": 7.9}, {"nombre": "GROTLI III", "pais": "NO", "lat": 62.017, "lon": 7.66}, {"nombre": "JUVVASSHOE", "pais": "NO", "lat": 61.667, "lon": 8.36}, {"nombre": "FILEFJELL", "pais": "NO", "lat": 61.183, "lon": 8.11}, {"nombre": "BEITOSTOLEN II", "pais": "NO", "lat": 61.251, "lon": 8.91}, {"nombre": "SOGNEFJELL", "pais": "NO", "lat": 61.567, "lon": 8.0}, {"nombre": "FAGERNES", "pais": "NO", "lat": 60.983, "lon": 9.21}, {"nombre": "BEITOSTOLEN", "pais": "NO", "lat": 61.233, "lon": 8.93}, {"nombre": "LEIRIN", "pais": "NO", "lat": 61.016, "lon": 9.28}, {"nombre": "ABJORSBRATEN", "pais": "NO", "lat": 60.917, "lon": 9.28}, {"nombre": "SKABU", "pais": "NO", "lat": 61.517, "lon": 9.4}, {"nombre": "LOKEN I VOLBU", "pais": "NO", "lat": 61.117, "lon": 9.06}, {"nombre": "NESBYEN-SKOGLUND", "pais": "NO", "lat": 60.567, "lon": 9.13}, {"nombre": "NESBYEN-TODOKK", "pais": "NO", "lat": 60.567, "lon": 9.13}, {"nombre": "VEST-TORPA II", "pais": "NO", "lat": 60.933, "lon": 10.03}, {"nombre": "FAGERNES/LEIRIN   &", "pais": "NO", "lat": 61.0, "lon": 9.3}, {"nombre": "KVITFJELL", "pais": "NO", "lat": 61.467, "lon": 10.13}, {"nombre": "GULLFAX (PLATFORM)", "pais": "NO", "lat": 61.033, "lon": 2.03}, {"nombre": "GULSVIK II", "pais": "NO", "lat": 60.383, "lon": 9.6}, {"nombre": "LILLEHAMMER-SAETHERENGEN", "pais": "NO", "lat": 61.1, "lon": 10.46}, {"nombre": "SOR-NESSET", "pais": "NO", "lat": 61.883, "lon": 10.15}, {"nombre": "VENABU", "pais": "NO", "lat": 61.65, "lon": 10.11}, {"nombre": "KITTILBU", "pais": "NO", "lat": 61.167, "lon": 9.96}, {"nombre": "APELSVOLL", "pais": "NO", "lat": 60.7, "lon": 10.86}, {"nombre": "KISE", "pais": "NO", "lat": 60.767, "lon": 10.8}, {"nombre": "EVENSTAD-DIH", "pais": "NO", "lat": 61.4, "lon": 11.08}, {"nombre": "HAMAR / STAFSBERG", "pais": "NO", "lat": 60.817, "lon": 11.06}, {"nombre": "GARDERMOEN", "pais": "NO", "lat": 60.194, "lon": 11.1}, {"nombre": "HAMER", "pais": "NO", "lat": 60.817, "lon": 11.06}, {"nombre": "HAMAR II", "pais": "NO", "lat": 60.8, "lon": 11.1}, {"nombre": "FAVANG", "pais": "NO", "lat": 61.45, "lon": 10.18}, {"nombre": "RENA AP", "pais": "NO", "lat": 61.183, "lon": 11.36}, {"nombre": "FLISA", "pais": "NO", "lat": 60.617, "lon": 12.01}, {"nombre": "FLISA II", "pais": "NO", "lat": 60.617, "lon": 12.01}, {"nombre": "DREVSJO", "pais": "NO", "lat": 61.883, "lon": 12.03}, {"nombre": "TRYSIL VEGSTASJON", "pais": "NO", "lat": 61.3, "lon": 12.26}, {"nombre": "EKOFISK", "pais": "NO", "lat": 56.55, "lon": 3.21}, {"nombre": "FRIGG", "pais": "NO", "lat": 59.983, "lon": 2.25}, {"nombre": "UTSIRA FYR", "pais": "NO", "lat": 59.3, "lon": 4.86}, {"nombre": "EKOFISK OIL PLTFRM", "pais": "NO", "lat": 56.55, "lon": 3.25}, {"nombre": "KARMOY", "pais": "NO", "lat": 59.35, "lon": 5.21}, {"nombre": "SLATTEROY FYR", "pais": "NO", "lat": 59.917, "lon": 5.06}, {"nombre": "KARMOY", "pais": "NO", "lat": 59.345, "lon": 5.2}, {"nombre": "SKUDENES", "pais": "NO", "lat": 59.15, "lon": 5.25}, {"nombre": "KVITSOY - NORDBO", "pais": "NO", "lat": 59.067, "lon": 5.41}, {"nombre": "OBRESTAD", "pais": "NO", "lat": 58.65, "lon": 5.56}, {"nombre": "SAERHEIM", "pais": "NO", "lat": 58.75, "lon": 5.65}, {"nombre": "ROVER", "pais": "NO", "lat": 59.433, "lon": 5.06}, {"nombre": "SOLA", "pais": "NO", "lat": 58.877, "lon": 5.63}, {"nombre": "STAVANGER VAALAND", "pais": "NO", "lat": 58.95, "lon": 5.73}, {"nombre": "NEDRE VATS", "pais": "NO", "lat": 59.483, "lon": 5.75}, {"nombre": "AUSTEVOLL", "pais": "NO", "lat": 60.017, "lon": 5.2}, {"nombre": "LIARVATN", "pais": "NO", "lat": 59.05, "lon": 6.11}, {"nombre": "INDRE MATRE", "pais": "NO", "lat": 59.85, "lon": 6.0}, {"nombre": "FISTER SIGMUNDSTAD", "pais": "NO", "lat": 59.167, "lon": 6.03}, {"nombre": "FISTER-TONNEVIK", "pais": "NO", "lat": 59.167, "lon": 6.05}, {"nombre": "SAUDA", "pais": "NO", "lat": 59.65, "lon": 6.36}, {"nombre": "EIK HOVE", "pais": "NO", "lat": 58.517, "lon": 6.51}, {"nombre": "EIGEROYA", "pais": "NO", "lat": 58.433, "lon": 5.86}, {"nombre": "LISTA FYR", "pais": "NO", "lat": 58.117, "lon": 6.56}, {"nombre": "LISTA", "pais": "NO", "lat": 58.099, "lon": 6.62}, {"nombre": "ULA OIL PLATFORM", "pais": "NO", "lat": 59.111, "lon": 2.84}, {"nombre": "MANDAL II", "pais": "NO", "lat": 58.017, "lon": 7.45}, {"nombre": "SIRDAL-SINNES", "pais": "NO", "lat": 58.933, "lon": 6.91}, {"nombre": "SIRDAL-TJORHOM", "pais": "NO", "lat": 58.883, "lon": 6.85}, {"nombre": "FIDJELAND", "pais": "NO", "lat": 58.967, "lon": 6.93}, {"nombre": "MIDTLAEGER", "pais": "NO", "lat": 59.833, "lon": 6.98}, {"nombre": "VAAGSLI", "pais": "NO", "lat": 59.767, "lon": 7.36}, {"nombre": "HAUKELISETER TESTFELT", "pais": "NO", "lat": 59.817, "lon": 7.21}, {"nombre": "LINDESNES FYR", "pais": "NO", "lat": 57.983, "lon": 7.05}, {"nombre": "KONSMO-HOYLAND", "pais": "NO", "lat": 58.25, "lon": 7.44}, {"nombre": "BLASJO", "pais": "NO", "lat": 59.333, "lon": 6.86}, {"nombre": "HOVDEN-LUNDANE", "pais": "NO", "lat": 59.583, "lon": 7.38}, {"nombre": "BYGLANDSFJORD", "pais": "NO", "lat": 58.667, "lon": 7.8}, {"nombre": "VALLE", "pais": "NO", "lat": 59.2, "lon": 7.51}, {"nombre": "SKAFSA", "pais": "NO", "lat": 59.45, "lon": 8.0}, {"nombre": "OYFJELL-TROVATN", "pais": "NO", "lat": 59.567, "lon": 8.2}, {"nombre": "HOYDALSMO II", "pais": "NO", "lat": 59.5, "lon": 8.2}, {"nombre": "OKSOY FYR", "pais": "NO", "lat": 58.067, "lon": 8.05}, {"nombre": "GJERSTAD", "pais": "NO", "lat": 58.867, "lon": 9.03}, {"nombre": "MOSSTRAND II", "pais": "NO", "lat": 59.833, "lon": 8.18}, {"nombre": "KJEVIK", "pais": "NO", "lat": 58.204, "lon": 8.08}, {"nombre": "HYNNEKLEIV", "pais": "NO", "lat": 58.6, "lon": 8.41}, {"nombre": "TVEITSUND", "pais": "NO", "lat": 59.033, "lon": 8.51}, {"nombre": "NELAUG", "pais": "NO", "lat": 58.65, "lon": 8.63}, {"nombre": "GULLHOLMEN", "pais": "NO", "lat": 59.433, "lon": 10.58}, {"nombre": "GAUSTATOPPEN", "pais": "NO", "lat": 59.85, "lon": 8.65}, {"nombre": "PORSGRUNN", "pais": "NO", "lat": 59.083, "lon": 9.66}, {"nombre": "AS", "pais": "NO", "lat": 59.65, "lon": 10.76}, {"nombre": "LANDVIK", "pais": "NO", "lat": 58.333, "lon": 8.51}, {"nombre": "TORUNGEN FYR", "pais": "NO", "lat": 58.4, "lon": 8.78}, {"nombre": "KJELLER AP", "pais": "NO", "lat": 59.967, "lon": 11.03}, {"nombre": "LYNGOR FYR", "pais": "NO", "lat": 58.633, "lon": 9.15}, {"nombre": "KONGSVINGER", "pais": "NO", "lat": 60.183, "lon": 12.0}, {"nombre": "HONEFOSS-HOYBY", "pais": "NO", "lat": 60.167, "lon": 10.25}, {"nombre": "GVARV", "pais": "NO", "lat": 59.383, "lon": 9.2}, {"nombre": "NOTODDEN", "pais": "NO", "lat": 59.566, "lon": 9.21}, {"nombre": "VEGGLI II", "pais": "NO", "lat": 60.05, "lon": 9.15}, {"nombre": "KONGSBERG BRANNSTASJON", "pais": "NO", "lat": 59.617, "lon": 9.63}, {"nombre": "LYNGDAL I NUMEDAL", "pais": "NO", "lat": 59.9, "lon": 9.53}, {"nombre": "SKIEN-GEITERYGGEN", "pais": "NO", "lat": 59.183, "lon": 9.56}, {"nombre": "JOMFRULAND FYR", "pais": "NO", "lat": 58.85, "lon": 9.55}, {"nombre": "KONNERUD", "pais": "NO", "lat": 59.717, "lon": 10.15}, {"nombre": "SVENNER LH", "pais": "NO", "lat": 58.967, "lon": 10.15}, {"nombre": "DRAMMEN BERSKOG", "pais": "NO", "lat": 59.75, "lon": 10.13}, {"nombre": "MELSOM", "pais": "NO", "lat": 59.233, "lon": 10.35}, {"nombre": "FERDER LH", "pais": "NO", "lat": 59.033, "lon": 10.51}, {"nombre": "TORP", "pais": "NO", "lat": 59.187, "lon": 10.25}, {"nombre": "TORP", "pais": "NO", "lat": 59.183, "lon": 10.26}, {"nombre": "AURSKOG", "pais": "NO", "lat": 59.917, "lon": 11.58}, {"nombre": "OSEBERG", "pais": "NO", "lat": 59.317, "lon": 10.45}, {"nombre": "DANDE-GALLEBERG", "pais": "NO", "lat": 59.617, "lon": 10.21}, {"nombre": "ASKER", "pais": "NO", "lat": 59.85, "lon": 10.43}, {"nombre": "ALNA", "pais": "NO", "lat": 59.933, "lon": 10.83}, {"nombre": "HAKADAL", "pais": "NO", "lat": 60.117, "lon": 10.83}, {"nombre": "STATFJORD B OIL PLATFORM", "pais": "NO", "lat": 61.206, "lon": 1.82}, {"nombre": "BJORNHOLT", "pais": "NO", "lat": 60.05, "lon": 10.68}, {"nombre": "TRYVANNSHOGDA", "pais": "NO", "lat": 59.983, "lon": 10.68}, {"nombre": "OSLO-BLINDERN", "pais": "NO", "lat": 59.95, "lon": 10.71}, {"nombre": "SARPSBORG", "pais": "NO", "lat": 59.283, "lon": 11.11}, {"nombre": "RYGGE", "pais": "NO", "lat": 59.379, "lon": 10.78}, {"nombre": "STROMTANGEN FYR", "pais": "NO", "lat": 59.15, "lon": 10.83}, {"nombre": "HOLAND-FOSSER", "pais": "NO", "lat": 59.817, "lon": 11.48}, {"nombre": "PRESTEBAKKE", "pais": "NO", "lat": 59.0, "lon": 11.53}, {"nombre": "MAGNOR", "pais": "NO", "lat": 59.967, "lon": 12.21}, {"nombre": "RAKKESTAD", "pais": "NO", "lat": 59.383, "lon": 11.38}, {"nombre": "LJUNGBYHED", "pais": "SW", "lat": 56.083, "lon": 13.21}, {"nombre": "RITSEM", "pais": "SW", "lat": 67.733, "lon": 17.46}, {"nombre": "RITSEM", "pais": "SW", "lat": 67.733, "lon": 17.46}, {"nombre": "SUORVA", "pais": "SW", "lat": 67.533, "lon": 18.23}, {"nombre": "KATTERJAKK A", "pais": "SW", "lat": 68.417, "lon": 18.16}, {"nombre": "KATTERJAKK", "pais": "SW", "lat": 68.417, "lon": 18.16}, {"nombre": "ABISKO", "pais": "SW", "lat": 68.354, "lon": 18.81}, {"nombre": "TORNEHAMN (AUT)", "pais": "SW", "lat": 68.433, "lon": 18.63}, {"nombre": "STORA SJOFALLET", "pais": "SW", "lat": 67.5, "lon": 18.3}, {"nombre": "ALUOKTA", "pais": "SW", "lat": 67.317, "lon": 18.88}, {"nombre": "TARFALA - SOL", "pais": "SW", "lat": 67.917, "lon": 18.6}, {"nombre": "TARFALA", "pais": "SW", "lat": 67.917, "lon": 18.6}, {"nombre": "RENSJON", "pais": "SW", "lat": 68.067, "lon": 19.83}, {"nombre": "TORNETRASK LAKE", "pais": "SW", "lat": 68.217, "lon": 19.71}, {"nombre": "NIKKALUOKTA", "pais": "SW", "lat": 67.85, "lon": 19.03}, {"nombre": "LATNIVAARA", "pais": "SW", "lat": 67.25, "lon": 20.26}, {"nombre": "ESRANGE", "pais": "SW", "lat": 67.933, "lon": 21.06}, {"nombre": "KIRUNA", "pais": "SW", "lat": 67.822, "lon": 20.33}, {"nombre": "KIRUNA-SOL", "pais": "SW", "lat": 67.833, "lon": 20.41}, {"nombre": "MALMBERGET", "pais": "SW", "lat": 67.167, "lon": 20.66}, {"nombre": "GALLIVARE", "pais": "SW", "lat": 67.132, "lon": 20.81}, {"nombre": "RIKSGRANSEN", "pais": "SW", "lat": 68.417, "lon": 18.11}, {"nombre": "KARESUANDO", "pais": "SZ", "lat": 68.45, "lon": 22.5}, {"nombre": "KVIKKJOKK         &", "pais": "SW", "lat": 66.95, "lon": 17.75}, {"nombre": "MALMBERGET", "pais": "SW", "lat": 67.133, "lon": 20.66}, {"nombre": "NEDRE SOPPERO", "pais": "SW", "lat": 68.05, "lon": 21.75}, {"nombre": "NAIMAKKA", "pais": "SW", "lat": 68.683, "lon": 21.53}, {"nombre": "STENSELE", "pais": "SZ", "lat": 65.067, "lon": 17.16}, {"nombre": "KALLAX/LULEA (AFB)", "pais": "SW", "lat": 65.55, "lon": 22.13}, {"nombre": "HAPARANDA         &", "pais": "SW", "lat": 65.833, "lon": 24.15}, {"nombre": "GADDEDE", "pais": "SW", "lat": 64.5, "lon": 14.13}, {"nombre": "NAIMAKKA", "pais": "SW", "lat": 68.683, "lon": 21.53}, {"nombre": "OSTERSUND FROSON AB", "pais": "SW", "lat": 63.183, "lon": 14.5}, {"nombre": "ASELE", "pais": "SW", "lat": 64.167, "lon": 17.36}, {"nombre": "SAITTAROVA", "pais": "SW", "lat": 67.333, "lon": 22.23}, {"nombre": "SVEG              &", "pais": "SW", "lat": 62.033, "lon": 14.36}, {"nombre": "SUNDSVALL/HARNOSAND", "pais": "SW", "lat": 62.533, "lon": 17.45}, {"nombre": "SARNA", "pais": "SW", "lat": 61.683, "lon": 13.13}, {"nombre": "DELSBO", "pais": "SW", "lat": 61.8, "lon": 16.56}, {"nombre": "SODERHAMN (SWE-AFB)", "pais": "SW", "lat": 61.267, "lon": 17.1}, {"nombre": "GUSTAVSFORS       &", "pais": "SW", "lat": 60.15, "lon": 13.8}, {"nombre": "NORRKOPING-SOL", "pais": "SW", "lat": 58.583, "lon": 16.15}, {"nombre": "BORLANGE", "pais": "SW", "lat": 60.417, "lon": 15.51}, {"nombre": "PARKALOMPOLO", "pais": "SW", "lat": 67.733, "lon": 22.83}, {"nombre": "KARLSTAD          &", "pais": "SW", "lat": 59.367, "lon": 13.46}, {"nombre": "OREBRO/EKEBY", "pais": "SW", "lat": 59.267, "lon": 15.33}, {"nombre": "VASTERAS/HASSLO AFB", "pais": "SW", "lat": 59.583, "lon": 16.63}, {"nombre": "UPPSALA           &", "pais": "SW", "lat": 59.883, "lon": 17.6}, {"nombre": "STOCKHOLM/BROMMA  &", "pais": "SW", "lat": 59.35, "lon": 17.95}, {"nombre": "SATENAS (SWE-AFB)", "pais": "SW", "lat": 58.433, "lon": 12.7}, {"nombre": "KARESUANDO", "pais": "SW", "lat": 68.45, "lon": 22.45}, {"nombre": "KARESUANDO", "pais": "SW", "lat": 68.45, "lon": 22.45}, {"nombre": "LANDSORT          &", "pais": "SW", "lat": 58.75, "lon": 17.86}, {"nombre": "GOTSKA SANDON     &", "pais": "SW", "lat": 58.4, "lon": 19.2}, {"nombre": "LANNAVAARA        &", "pais": "SW", "lat": 68.05, "lon": 22.0}, {"nombre": "RANGEDALA (AUTO)", "pais": "SW", "lat": 57.717, "lon": 13.11}, {"nombre": "LAINIO", "pais": "SW", "lat": 67.767, "lon": 22.35}, {"nombre": "JONKOPING         &", "pais": "SW", "lat": 57.767, "lon": 14.08}, {"nombre": "KOMPELUSVAARA", "pais": "SW", "lat": 67.083, "lon": 22.21}, {"nombre": "OLANDS NORRA UDDE &", "pais": "SW", "lat": 57.367, "lon": 17.1}, {"nombre": "VISBY             &", "pais": "SW", "lat": 57.667, "lon": 18.35}, {"nombre": "VISBY-SOL", "pais": "SW", "lat": 57.667, "lon": 18.35}, {"nombre": "MUODOSLOMPOLO", "pais": "SW", "lat": 67.95, "lon": 23.46}, {"nombre": "VAXJO             &", "pais": "SW", "lat": 56.867, "lon": 14.8}, {"nombre": "UNGSKAR", "pais": "SW", "lat": 56.033, "lon": 15.8}, {"nombre": "PAJALA", "pais": "SW", "lat": 67.2, "lon": 23.38}, {"nombre": "PAJALA", "pais": "SW", "lat": 67.217, "lon": 23.4}, {"nombre": "MALMO /BULLTOFTON", "pais": "SZ", "lat": 55.6, "lon": 13.06}, {"nombre": "MALMO/STURUP", "pais": "SW", "lat": 55.55, "lon": 13.36}, {"nombre": "YSTAD             &", "pais": "SW", "lat": 55.433, "lon": 13.83}, {"nombre": "NAIMAKKA", "pais": "SW", "lat": 68.683, "lon": 21.53}, {"nombre": "HEMAVAN", "pais": "SW", "lat": 65.806, "lon": 15.08}, {"nombre": "STEKENJOKK", "pais": "SW", "lat": 65.1, "lon": 14.51}, {"nombre": "HEMAVAN-GIEREVARTO", "pais": "SW", "lat": 65.783, "lon": 15.06}, {"nombre": "HEMAVAN", "pais": "SW", "lat": 65.817, "lon": 15.08}, {"nombre": "ABELVATTNET", "pais": "SW", "lat": 65.533, "lon": 14.98}, {"nombre": "JOKKMOKK (SWE-AFB)", "pais": "SW", "lat": 66.6, "lon": 19.83}, {"nombre": "KLIMPFJALL", "pais": "SW", "lat": 65.067, "lon": 14.8}, {"nombre": "ABRAUR", "pais": "SW", "lat": 65.9, "lon": 19.1}, {"nombre": "GIELAS", "pais": "SW", "lat": 65.333, "lon": 15.06}, {"nombre": "VIDSEL (SWE-AFB)", "pais": "SW", "lat": 65.867, "lon": 20.13}, {"nombre": "SYLARNA", "pais": "SW", "lat": 63.05, "lon": 12.26}, {"nombre": "NORRAKER", "pais": "SW", "lat": 64.45, "lon": 15.6}, {"nombre": "STORLIEN-VISJOVALE&", "pais": "SW", "lat": 63.3, "lon": 12.13}, {"nombre": "MORSIL", "pais": "SW", "lat": 63.317, "lon": 13.65}, {"nombre": "NORDMALING", "pais": "SW", "lat": 63.567, "lon": 19.5}, {"nombre": "DIKANAS/SKANSNAS", "pais": "SW", "lat": 65.317, "lon": 16.03}, {"nombre": "KVIKKJOKK ARRENJARKA", "pais": "SW", "lat": 66.883, "lon": 18.01}, {"nombre": "KVIKKJOKK-ARRENJARKA", "pais": "SW", "lat": 66.883, "lon": 18.01}, {"nombre": "STORUMAN", "pais": "SW", "lat": 64.95, "lon": 17.7}, {"nombre": "MIERKENIS", "pais": "SW", "lat": 66.683, "lon": 16.11}, {"nombre": "STENUDDEN", "pais": "SW", "lat": 66.533, "lon": 17.66}, {"nombre": "JAKKVIK", "pais": "SW", "lat": 66.317, "lon": 17.1}, {"nombre": "ARJEPLOG", "pais": "SW", "lat": 66.05, "lon": 17.83}, {"nombre": "OSTMARK", "pais": "SW", "lat": 60.317, "lon": 12.7}, {"nombre": "GUNNARN", "pais": "SW", "lat": 65.017, "lon": 17.7}, {"nombre": "STENSELE", "pais": "SW", "lat": 65.067, "lon": 17.16}, {"nombre": "GUNNARN", "pais": "SW", "lat": 65.0, "lon": 17.7}, {"nombre": "GUNNARN SOL (AUT)", "pais": "SW", "lat": 64.967, "lon": 17.7}, {"nombre": "ROPARUDDEN", "pais": "SW", "lat": 66.483, "lon": 16.41}, {"nombre": "ARVIKA", "pais": "SW", "lat": 59.667, "lon": 12.58}, {"nombre": "SNAVLUNDA", "pais": "SW", "lat": 58.967, "lon": 14.9}, {"nombre": "BURESJON", "pais": "SW", "lat": 65.567, "lon": 17.86}, {"nombre": "STORBERG", "pais": "SW", "lat": 65.5, "lon": 18.95}, {"nombre": "GRUNDKALLEN", "pais": "SW", "lat": 60.5, "lon": 18.86}, {"nombre": "TJAKAAPE", "pais": "SW", "lat": 66.317, "lon": 19.21}, {"nombre": "JOKKMOKK", "pais": "SW", "lat": 66.496, "lon": 20.14}, {"nombre": "PALJAMYREN", "pais": "SW", "lat": 66.217, "lon": 19.13}, {"nombre": "ABRAUR", "pais": "SW", "lat": 65.983, "lon": 18.93}, {"nombre": "TELLEJAUR", "pais": "SW", "lat": 66.15, "lon": 19.63}, {"nombre": "VAJMAT", "pais": "SW", "lat": 66.5, "lon": 19.68}, {"nombre": "MALA-BRANNAN", "pais": "SW", "lat": 65.15, "lon": 18.6}, {"nombre": "NORRKOPING/BRAVALLA", "pais": "SW", "lat": 58.617, "lon": 16.11}, {"nombre": "ARVIDSJAUR", "pais": "SW", "lat": 65.6, "lon": 19.26}, {"nombre": "NYKOPING/SKAVST AFB", "pais": "SW", "lat": 58.783, "lon": 16.91}, {"nombre": "JOKKMOKK FPL", "pais": "SW", "lat": 66.483, "lon": 20.16}, {"nombre": "SUDOK", "pais": "SW", "lat": 66.3, "lon": 20.41}, {"nombre": "VIDSEL", "pais": "SW", "lat": 65.875, "lon": 20.15}, {"nombre": "HAGSHULT (SWE-AFB)", "pais": "SW", "lat": 57.3, "lon": 14.13}, {"nombre": "STENSJON (AUT)", "pais": "SW", "lat": 63.967, "lon": 13.71}, {"nombre": "FALLFORS", "pais": "SW", "lat": 65.133, "lon": 20.78}, {"nombre": "FALLFORS", "pais": "SW", "lat": 65.12, "lon": 20.77}, {"nombre": "NATTAVAARA", "pais": "SW", "lat": 66.75, "lon": 21.05}, {"nombre": "NATTAVAARA", "pais": "SW", "lat": 66.75, "lon": 20.93}, {"nombre": "MARKARYD", "pais": "SW", "lat": 56.467, "lon": 13.65}, {"nombre": "LJUNGBYHED(SWE-AFB)", "pais": "SW", "lat": 56.083, "lon": 13.23}, {"nombre": "PALKEM", "pais": "SW", "lat": 66.383, "lon": 21.63}, {"nombre": "RONNEBY (SWE-AFB)", "pais": "SW", "lat": 56.267, "lon": 15.28}, {"nombre": "FALSTERBO (LGT-H)", "pais": "SW", "lat": 55.383, "lon": 12.81}, {"nombre": "HEDEN", "pais": "SW", "lat": 65.867, "lon": 21.45}, {"nombre": "SAVAST", "pais": "SW", "lat": 65.75, "lon": 21.76}, {"nombre": "BODEN", "pais": "SW", "lat": 65.817, "lon": 21.63}, {"nombre": "ALVSBYN", "pais": "SW", "lat": 65.683, "lon": 20.96}, {"nombre": "ALVSBYN", "pais": "SW", "lat": 65.667, "lon": 21.06}, {"nombre": "LAKATRASK", "pais": "SW", "lat": 66.283, "lon": 21.13}, {"nombre": "PITE-RONNSKAR", "pais": "SW", "lat": 65.033, "lon": 21.56}, {"nombre": "OVERKALIX SVARTBYN", "pais": "SW", "lat": 66.267, "lon": 22.85}, {"nombre": "OVERKALIX", "pais": "SW", "lat": 66.267, "lon": 22.83}, {"nombre": "LULEA-SOL", "pais": "SW", "lat": 65.55, "lon": 22.11}, {"nombre": "PAHAROVA", "pais": "SW", "lat": 66.817, "lon": 22.33}, {"nombre": "LULEA-KALLAX", "pais": "SW", "lat": 65.55, "lon": 22.13}, {"nombre": "KALLAX", "pais": "SW", "lat": 65.544, "lon": 22.12}, {"nombre": "RODKALLEN", "pais": "SW", "lat": 65.317, "lon": 22.38}, {"nombre": "KORPILOMBOLO", "pais": "SW", "lat": 66.85, "lon": 23.03}, {"nombre": "STORON", "pais": "SW", "lat": 65.7, "lon": 23.1}, {"nombre": "HAPARANDA", "pais": "SW", "lat": 65.833, "lon": 24.15}, {"nombre": "HAPARANDA", "pais": "SW", "lat": 65.817, "lon": 24.11}, {"nombre": "YLINENJARVI", "pais": "SW", "lat": 66.617, "lon": 23.46}, {"nombre": "EDEVIK", "pais": "SW", "lat": 63.983, "lon": 12.86}, {"nombre": "TORNETRASK LAKE", "pais": "SW", "lat": 68.217, "lon": 19.71}, {"nombre": "NIKKALUOKTA", "pais": "SW", "lat": 67.85, "lon": 19.03}, {"nombre": "STORLIEN SOL", "pais": "SW", "lat": 63.3, "lon": 12.11}, {"nombre": "STORLIEN-STORVALLEN", "pais": "SW", "lat": 63.283, "lon": 12.13}, {"nombre": "STORLIEN-VISJOVALEN A", "pais": "SW", "lat": 63.283, "lon": 12.11}, {"nombre": "SYLARNA", "pais": "SW", "lat": 63.05, "lon": 12.28}, {"nombre": "BLAHAMMAREN", "pais": "SW", "lat": 63.183, "lon": 12.16}, {"nombre": "ARESKUTAN", "pais": "SW", "lat": 63.433, "lon": 13.08}, {"nombre": "MATTMAR", "pais": "SW", "lat": 63.3, "lon": 13.88}, {"nombre": "ARE", "pais": "SW", "lat": 63.367, "lon": 13.16}, {"nombre": "MORSIL", "pais": "SW", "lat": 63.317, "lon": 13.65}, {"nombre": "GADDEDE A", "pais": "SW", "lat": 64.5, "lon": 14.21}, {"nombre": "KORSVATTNET", "pais": "SW", "lat": 63.833, "lon": 13.5}, {"nombre": "GADDEDE", "pais": "SW", "lat": 64.5, "lon": 14.16}, {"nombre": "STEMSJON (AUT)", "pais": "SW", "lat": 63.967, "lon": 13.71}, {"nombre": "FOLLINGE-VAGSKALET", "pais": "SW", "lat": 63.767, "lon": 14.43}, {"nombre": "OSTERSUND", "pais": "SW", "lat": 63.2, "lon": 14.5}, {"nombre": "KALIX", "pais": "SW", "lat": 65.85, "lon": 23.13}, {"nombre": "EDEVIK", "pais": "SW", "lat": 64.05, "lon": 12.95}, {"nombre": "OSTERSUND-SOL", "pais": "SW", "lat": 63.2, "lon": 14.48}, {"nombre": "GUBBHOGEN", "pais": "SW", "lat": 64.217, "lon": 15.55}, {"nombre": "FOLLINGE", "pais": "SW", "lat": 63.683, "lon": 14.6}, {"nombre": "NORRAKER", "pais": "SW", "lat": 64.433, "lon": 15.63}, {"nombre": "SAXNAS", "pais": "SW", "lat": 64.967, "lon": 15.38}, {"nombre": "STROMSUND", "pais": "SW", "lat": 63.867, "lon": 15.58}, {"nombre": "HALLHAXASEN", "pais": "SW", "lat": 63.767, "lon": 15.33}, {"nombre": "HOTING", "pais": "SW", "lat": 64.083, "lon": 16.23}, {"nombre": "JUNSELE", "pais": "SW", "lat": 63.683, "lon": 16.95}, {"nombre": "JUNSELE", "pais": "SW", "lat": 63.683, "lon": 16.95}, {"nombre": "VILHELMINA", "pais": "SW", "lat": 64.583, "lon": 16.85}, {"nombre": "LYCKSELE", "pais": "SW", "lat": 64.548, "lon": 18.71}, {"nombre": "KRANGEDE", "pais": "SW", "lat": 63.15, "lon": 16.16}, {"nombre": "KRANGEDE", "pais": "SW", "lat": 63.167, "lon": 16.16}, {"nombre": "STORSJO KAPELL", "pais": "SW", "lat": 62.8, "lon": 13.06}, {"nombre": "IDVATTNET", "pais": "SW", "lat": 64.45, "lon": 17.08}, {"nombre": "ASELE", "pais": "SW", "lat": 64.167, "lon": 17.31}, {"nombre": "FRANSTA", "pais": "SW", "lat": 62.5, "lon": 16.18}, {"nombre": "RISTRASK", "pais": "SW", "lat": 64.733, "lon": 17.4}, {"nombre": "FLOTNINGEN", "pais": "SW", "lat": 61.85, "lon": 12.26}, {"nombre": "VINDEL-BJORKHEDEN", "pais": "SW", "lat": 65.817, "lon": 16.71}, {"nombre": "KRAMFORS SOLLEFTEA", "pais": "SW", "lat": 63.049, "lon": 17.76}, {"nombre": "VASTMARKUM", "pais": "SW", "lat": 63.133, "lon": 18.25}, {"nombre": "LYCKSELE", "pais": "SW", "lat": 64.55, "lon": 18.71}, {"nombre": "VUOGGATJALME", "pais": "SW", "lat": 66.567, "lon": 16.35}, {"nombre": "FREDRIKA", "pais": "SW", "lat": 64.083, "lon": 18.36}, {"nombre": "FREDRIKA", "pais": "SW", "lat": 64.083, "lon": 18.41}, {"nombre": "HEMLING", "pais": "SW", "lat": 63.65, "lon": 18.55}, {"nombre": "VILHELMINA (AUTO)", "pais": "SW", "lat": 64.583, "lon": 16.85}, {"nombre": "ORNSKOLDSVIK", "pais": "SW", "lat": 63.408, "lon": 18.99}, {"nombre": "SKAGSUDDE", "pais": "SW", "lat": 63.183, "lon": 19.01}, {"nombre": "NORSJO", "pais": "SW", "lat": 64.917, "lon": 19.46}, {"nombre": "NORSJO", "pais": "SW", "lat": 64.933, "lon": 19.38}, {"nombre": "VINDELN", "pais": "SW", "lat": 64.217, "lon": 19.71}, {"nombre": "NORDMALING", "pais": "SW", "lat": 63.567, "lon": 19.5}, {"nombre": "KRANGEDE (AUTO)", "pais": "SW", "lat": 63.15, "lon": 16.16}, {"nombre": "SKILLINGMARK", "pais": "SW", "lat": 59.867, "lon": 11.96}, {"nombre": "BLOMSKOG", "pais": "SW", "lat": 59.283, "lon": 12.05}, {"nombre": "AMAL", "pais": "SW", "lat": 59.05, "lon": 12.7}, {"nombre": "PETISTRASK", "pais": "SW", "lat": 64.567, "lon": 19.7}, {"nombre": "UMEA-SOL", "pais": "SW", "lat": 63.817, "lon": 20.23}, {"nombre": "JARNASKLUBB", "pais": "SW", "lat": 63.433, "lon": 19.68}, {"nombre": "UMEA", "pais": "SW", "lat": 63.792, "lon": 20.28}, {"nombre": "SODERHAMN", "pais": "SW", "lat": 61.267, "lon": 17.1}, {"nombre": "HOLMON", "pais": "SW", "lat": 63.8, "lon": 20.86}, {"nombre": "HOLMOGADD", "pais": "SW", "lat": 63.6, "lon": 20.75}, {"nombre": "SYDOSTBROTTEN (LH)", "pais": "SW", "lat": 63.333, "lon": 20.18}, {"nombre": "FURUOGRUND        &", "pais": "SW", "lat": 64.917, "lon": 21.23}, {"nombre": "HOKMARKSBERGET", "pais": "SW", "lat": 64.433, "lon": 21.28}, {"nombre": "SKELLEFTEA", "pais": "SW", "lat": 64.625, "lon": 21.07}, {"nombre": "BJUROKLUBB (LGT-H)", "pais": "SW", "lat": 64.483, "lon": 21.58}, {"nombre": "BJUROKLUBB", "pais": "SW", "lat": 64.483, "lon": 21.58}, {"nombre": "SVARTEBORG", "pais": "SW", "lat": 58.567, "lon": 11.55}, {"nombre": "FJALLNAS", "pais": "SW", "lat": 62.583, "lon": 12.21}, {"nombre": "STORBO", "pais": "SW", "lat": 61.833, "lon": 12.28}, {"nombre": "FLATRUET", "pais": "SW", "lat": 62.733, "lon": 12.73}, {"nombre": "FLOTNINGEN", "pais": "SW", "lat": 61.85, "lon": 12.26}, {"nombre": "NASHUVUD", "pais": "SW", "lat": 58.9, "lon": 13.25}, {"nombre": "RORBACKSNAS", "pais": "SW", "lat": 61.133, "lon": 12.81}, {"nombre": "IDRE FJALL", "pais": "SW", "lat": 61.883, "lon": 12.85}, {"nombre": "TANNAS", "pais": "SW", "lat": 62.45, "lon": 12.66}, {"nombre": "STORSJO KAPELL", "pais": "SW", "lat": 62.8, "lon": 13.06}, {"nombre": "HOGFJALLSHOTELLET", "pais": "SW", "lat": 61.15, "lon": 13.11}, {"nombre": "MALEXANDER", "pais": "SW", "lat": 58.067, "lon": 15.21}, {"nombre": "VISINGSO", "pais": "SW", "lat": 58.1, "lon": 14.4}, {"nombre": "LOFSDALEN", "pais": "SW", "lat": 62.1, "lon": 13.25}, {"nombre": "TYLLINGE", "pais": "SW", "lat": 58.017, "lon": 16.06}, {"nombre": "SARNA", "pais": "SW", "lat": 61.7, "lon": 13.18}, {"nombre": "DRAVAGEN", "pais": "SW", "lat": 62.1, "lon": 13.61}, {"nombre": "TANDADALEN", "pais": "SW", "lat": 61.167, "lon": 13.01}, {"nombre": "BORTNAN", "pais": "SW", "lat": 62.75, "lon": 13.85}, {"nombre": "AMBJORNARP", "pais": "SW", "lat": 57.417, "lon": 13.28}, {"nombre": "TINGHALLA", "pais": "SW", "lat": 57.967, "lon": 13.85}, {"nombre": "ALVDALEN", "pais": "SW", "lat": 61.25, "lon": 14.03}, {"nombre": "KLOVSJO", "pais": "SW", "lat": 62.533, "lon": 14.2}, {"nombre": "SVEG", "pais": "SW", "lat": 62.017, "lon": 14.18}, {"nombre": "KLOVSJOHOJDEN", "pais": "SW", "lat": 62.5, "lon": 14.15}, {"nombre": "FREDRIKA", "pais": "SW", "lat": 64.083, "lon": 18.41}, {"nombre": "SVEG A", "pais": "SW", "lat": 62.05, "lon": 14.4}, {"nombre": "KRAMFORS (SWE-AFB)", "pais": "SW", "lat": 63.05, "lon": 17.76}, {"nombre": "HAMRA", "pais": "SW", "lat": 61.667, "lon": 15.0}, {"nombre": "HUNGE", "pais": "SW", "lat": 62.75, "lon": 15.1}, {"nombre": "HUNGE", "pais": "SW", "lat": 62.75, "lon": 15.08}, {"nombre": "FAGERHULT", "pais": "SW", "lat": 57.15, "lon": 15.66}, {"nombre": "LJUNGBY", "pais": "SW", "lat": 56.833, "lon": 13.91}, {"nombre": "FINNEBY", "pais": "SW", "lat": 62.033, "lon": 15.46}, {"nombre": "EDSBYN", "pais": "SW", "lat": 61.383, "lon": 15.83}, {"nombre": "NORRHOG", "pais": "SW", "lat": 62.267, "lon": 15.66}, {"nombre": "EDSBYN", "pais": "SW", "lat": 61.367, "lon": 15.71}, {"nombre": "FRANSTA", "pais": "SW", "lat": 62.517, "lon": 16.18}, {"nombre": "TORPSHAMMAR", "pais": "SW", "lat": 62.5, "lon": 16.28}, {"nombre": "SJOBO", "pais": "SW", "lat": 55.633, "lon": 13.7}, {"nombre": "DELSBO", "pais": "SW", "lat": 61.783, "lon": 16.55}, {"nombre": "DELSBO", "pais": "SW", "lat": 61.833, "lon": 16.55}, {"nombre": "SILLRE", "pais": "SW", "lat": 62.767, "lon": 16.73}, {"nombre": "RASTA", "pais": "SW", "lat": 62.433, "lon": 17.35}, {"nombre": "KUGGOREN", "pais": "SW", "lat": 61.7, "lon": 17.53}, {"nombre": "SKELLEFTEA AIRPORT", "pais": "SW", "lat": 64.633, "lon": 21.08}, {"nombre": "HARNOSAND", "pais": "SW", "lat": 62.633, "lon": 17.95}, {"nombre": "ORNSKOLDSVIK ARPT", "pais": "SW", "lat": 63.4, "lon": 18.96}, {"nombre": "SUNDSVALL-HARNOSAND", "pais": "SW", "lat": 62.517, "lon": 17.45}, {"nombre": "SUNDSVALL HARNOSAND", "pais": "SW", "lat": 62.528, "lon": 17.44}, {"nombre": "ALNON ISLAND", "pais": "SW", "lat": 62.367, "lon": 17.53}, {"nombre": "BRAMON", "pais": "SW", "lat": 62.217, "lon": 17.75}, {"nombre": "GAVLE/SANDVIKEN AFB", "pais": "SW", "lat": 60.6, "lon": 16.95}, {"nombre": "BORLANGE (SWE-AFB)", "pais": "SW", "lat": 60.433, "lon": 15.5}, {"nombre": "ESKILSTUNA(SWE-AFB&", "pais": "SW", "lat": 59.35, "lon": 16.71}, {"nombre": "SODERHAMN (SWE-AFB)", "pais": "SW", "lat": 61.267, "lon": 17.1}, {"nombre": "SODERHAMN FLYGPLATS", "pais": "SW", "lat": 61.45, "lon": 17.16}, {"nombre": "NORRKOPING/KUNGSANG", "pais": "SW", "lat": 58.583, "lon": 16.25}, {"nombre": "LUNGO", "pais": "SW", "lat": 62.65, "lon": 18.1}, {"nombre": "KRISTIANSTAD/EVEROD", "pais": "SW", "lat": 55.917, "lon": 14.08}, {"nombre": "OSTMARK", "pais": "SW", "lat": 60.35, "lon": 12.65}, {"nombre": "SKILLINGMARK", "pais": "SW", "lat": 59.867, "lon": 11.96}, {"nombre": "NAVEN", "pais": "SW", "lat": 58.7, "lon": 13.11}, {"nombre": "ARVIKA", "pais": "SW", "lat": 59.667, "lon": 12.58}, {"nombre": "BLOMSKOG", "pais": "SW", "lat": 59.283, "lon": 12.05}, {"nombre": "MALUNG A", "pais": "SW", "lat": 60.683, "lon": 13.7}, {"nombre": "BLOMSKOG", "pais": "SW", "lat": 59.217, "lon": 12.08}, {"nombre": "AMAL", "pais": "SW", "lat": 59.05, "lon": 12.7}, {"nombre": "MALUNG", "pais": "SW", "lat": 60.683, "lon": 13.7}, {"nombre": "ARVIKA", "pais": "SW", "lat": 59.676, "lon": 12.63}, {"nombre": "GUSTAVSFORS", "pais": "SW", "lat": 60.15, "lon": 13.8}, {"nombre": "BRATTMON", "pais": "SW", "lat": 60.75, "lon": 12.76}, {"nombre": "KARLSTAD SOL", "pais": "SW", "lat": 59.367, "lon": 13.46}, {"nombre": "MOLKOM", "pais": "SW", "lat": 59.617, "lon": 13.73}, {"nombre": "PALGRUNDEN", "pais": "SW", "lat": 58.75, "lon": 13.15}, {"nombre": "KARLSTAD", "pais": "SW", "lat": 59.445, "lon": 13.33}, {"nombre": "KARLSTAD SOL", "pais": "SW", "lat": 59.367, "lon": 13.46}, {"nombre": "MOCKFJARD", "pais": "SW", "lat": 60.517, "lon": 14.95}, {"nombre": "ASPHYTTAN", "pais": "SW", "lat": 59.617, "lon": 14.18}, {"nombre": "SUNNE", "pais": "SW", "lat": 59.867, "lon": 13.11}, {"nombre": "STALLDALEN", "pais": "SW", "lat": 59.95, "lon": 14.95}, {"nombre": "GUSTAVSFORS", "pais": "SW", "lat": 60.15, "lon": 13.8}, {"nombre": "ATORP", "pais": "SW", "lat": 59.1, "lon": 14.36}, {"nombre": "OREBRO", "pais": "SW", "lat": 59.224, "lon": 15.03}, {"nombre": "MORA", "pais": "SW", "lat": 60.958, "lon": 14.51}, {"nombre": "TORSBY", "pais": "SW", "lat": 60.158, "lon": 12.99}, {"nombre": "DAGLOSEN", "pais": "SW", "lat": 59.667, "lon": 14.18}, {"nombre": "BACKA", "pais": "SW", "lat": 60.917, "lon": 15.11}, {"nombre": "KLOTEN", "pais": "SW", "lat": 59.867, "lon": 15.25}, {"nombre": "OREBRO", "pais": "SW", "lat": 59.233, "lon": 15.05}, {"nombre": "FALUN", "pais": "SW", "lat": 60.617, "lon": 15.66}, {"nombre": "BORLANGE", "pais": "SW", "lat": 60.422, "lon": 15.51}, {"nombre": "OREBRO/EKEBY (DEAD)", "pais": "SW", "lat": 59.267, "lon": 15.33}, {"nombre": "ARBOGA", "pais": "SW", "lat": 59.387, "lon": 15.92}, {"nombre": "FELLINGSBRO-FINNAKE", "pais": "SW", "lat": 59.533, "lon": 15.58}, {"nombre": "AMOT", "pais": "SW", "lat": 60.967, "lon": 16.43}, {"nombre": "MORA", "pais": "SW", "lat": 60.967, "lon": 14.5}, {"nombre": "ENKOPING", "pais": "SW", "lat": 59.65, "lon": 17.11}, {"nombre": "FOLKARNA", "pais": "SW", "lat": 60.167, "lon": 16.31}, {"nombre": "VASTERAS", "pais": "SW", "lat": 59.589, "lon": 16.63}, {"nombre": "DUNKER", "pais": "SW", "lat": 59.2, "lon": 16.91}, {"nombre": "ESKILSTUNA A", "pais": "SW", "lat": 59.383, "lon": 16.45}, {"nombre": "EGGEGRUND", "pais": "SW", "lat": 60.733, "lon": 17.56}, {"nombre": "VASTRA BANKEN (AUT)", "pais": "SW", "lat": 60.883, "lon": 17.91}, {"nombre": "KILSBERGEN-SUTTARBODA", "pais": "SW", "lat": 59.3, "lon": 14.9}, {"nombre": "GAVLE/SANDVIKEN AIR FORCE BAS", "pais": "SW", "lat": 60.717, "lon": 17.16}, {"nombre": "UTVALNAS", "pais": "SW", "lat": 60.75, "lon": 17.35}, {"nombre": "FILM", "pais": "SW", "lat": 60.233, "lon": 17.9}, {"nombre": "UPPSALA", "pais": "SW", "lat": 59.897, "lon": 17.58}, {"nombre": "ARLANDA", "pais": "SW", "lat": 59.652, "lon": 17.91}, {"nombre": "UPPSALA UNIVERSITY", "pais": "SW", "lat": 59.867, "lon": 17.63}, {"nombre": "BROMMA", "pais": "SW", "lat": 59.354, "lon": 17.94}, {"nombre": "STOCKHOLM/BROMMA UA", "pais": "SW", "lat": 59.35, "lon": 17.96}, {"nombre": "STORA SPANSBERGET", "pais": "SW", "lat": 60.383, "lon": 15.13}, {"nombre": "TULLINGE", "pais": "SW", "lat": 59.183, "lon": 17.91}, {"nombre": "ORSKAR (LGT-H)", "pais": "SW", "lat": 60.533, "lon": 18.38}, {"nombre": "GRUNDKALLEN", "pais": "SW", "lat": 60.5, "lon": 18.86}, {"nombre": "SKEPPMORA", "pais": "SW", "lat": 60.117, "lon": 15.11}, {"nombre": "UNDERSTEN (LGT-H)", "pais": "SW", "lat": 60.283, "lon": 18.91}, {"nombre": "SINGO ISLAND", "pais": "SW", "lat": 60.167, "lon": 18.75}, {"nombre": "FLODA", "pais": "SW", "lat": 59.05, "lon": 16.4}, {"nombre": "NORRTALJE/VASBY", "pais": "SW", "lat": 59.85, "lon": 18.73}, {"nombre": "SALA", "pais": "SW", "lat": 59.917, "lon": 16.68}, {"nombre": "KERSTINBO", "pais": "SW", "lat": 60.267, "lon": 16.98}, {"nombre": "STOCKHOLM-SOL", "pais": "SW", "lat": 59.35, "lon": 18.06}, {"nombre": "STOCKHOLM/OBSERVATORIET", "pais": "SW", "lat": 59.35, "lon": 18.06}, {"nombre": "STOCKHOLM", "pais": "SW", "lat": 59.35, "lon": 18.06}, {"nombre": "SKAVSTA", "pais": "SW", "lat": 58.789, "lon": 16.91}, {"nombre": "ADELSO", "pais": "SW", "lat": 59.367, "lon": 17.51}, {"nombre": "SKARPO A", "pais": "SW", "lat": 59.35, "lon": 18.73}, {"nombre": "ORSKAR", "pais": "SW", "lat": 60.533, "lon": 18.38}, {"nombre": "BERGA", "pais": "SW", "lat": 59.067, "lon": 18.11}, {"nombre": "SVANBERGA", "pais": "SW", "lat": 59.833, "lon": 18.63}, {"nombre": "SVENSKA HOGARNA-SOL", "pais": "SW", "lat": 59.45, "lon": 19.5}, {"nombre": "SODERARM", "pais": "SW", "lat": 59.75, "lon": 19.41}, {"nombre": "BJUROKLUBB (LGT-H)", "pais": "SW", "lat": 64.483, "lon": 21.58}, {"nombre": "SVENSKA BJORN (AUT)", "pais": "SW", "lat": 59.55, "lon": 20.01}, {"nombre": "SVENSKA HOGARNA", "pais": "SW", "lat": 59.45, "lon": 19.5}, {"nombre": "SVENSKA HOGARNA A", "pais": "SW", "lat": 59.45, "lon": 19.5}, {"nombre": "ALMAGRUNDET", "pais": "SW", "lat": 59.15, "lon": 19.13}, {"nombre": "NORDKOSTER", "pais": "SW", "lat": 58.9, "lon": 11.0}, {"nombre": "VADEROARNA", "pais": "SW", "lat": 58.583, "lon": 11.06}, {"nombre": "DALS-ED", "pais": "SW", "lat": 58.9, "lon": 12.03}, {"nombre": "NORDKOSTER-SOL", "pais": "SW", "lat": 58.9, "lon": 11.0}, {"nombre": "SVARTEBORG", "pais": "SW", "lat": 58.567, "lon": 11.55}, {"nombre": "MASESKAR", "pais": "SW", "lat": 58.1, "lon": 11.33}, {"nombre": "HUD", "pais": "SW", "lat": 58.667, "lon": 11.41}, {"nombre": "MASESKAR (LGT-H)", "pais": "SW", "lat": 58.1, "lon": 11.35}, {"nombre": "LJUNGSKILE", "pais": "SW", "lat": 58.217, "lon": 11.93}, {"nombre": "TROLLHATTAN VANERSBORG", "pais": "SW", "lat": 58.318, "lon": 12.34}, {"nombre": "LIDKOPING", "pais": "SW", "lat": 58.466, "lon": 13.17}, {"nombre": "FLADEN", "pais": "SW", "lat": 57.217, "lon": 11.83}, {"nombre": "SAVE", "pais": "SW", "lat": 57.775, "lon": 11.87}, {"nombre": "GOTEBORG", "pais": "SW", "lat": 57.717, "lon": 12.0}, {"nombre": "ARVIDSJAUR", "pais": "SW", "lat": 65.59, "lon": 19.28}, {"nombre": "TORPABRON", "pais": "SW", "lat": 58.2, "lon": 12.15}, {"nombre": "VINGA", "pais": "SW", "lat": 57.633, "lon": 11.61}, {"nombre": "TRUBADUREN", "pais": "SW", "lat": 57.6, "lon": 11.63}, {"nombre": "NIDINGEN", "pais": "SW", "lat": 57.3, "lon": 11.9}, {"nombre": "RINGHALS (AUT)", "pais": "SW", "lat": 57.267, "lon": 12.11}, {"nombre": "SATENAS", "pais": "SW", "lat": 58.426, "lon": 12.71}, {"nombre": "BERGARUD", "pais": "SW", "lat": 58.6, "lon": 12.41}, {"nombre": "ABRAUR", "pais": "SW", "lat": 65.983, "lon": 18.93}, {"nombre": "MOLLA", "pais": "SW", "lat": 57.933, "lon": 13.06}, {"nombre": "LANDVETTER", "pais": "SW", "lat": 57.663, "lon": 12.28}, {"nombre": "GOTEBORG/LANDVETTER", "pais": "SW", "lat": 57.667, "lon": 12.29}, {"nombre": "TANDADALEN", "pais": "SW", "lat": 61.167, "lon": 13.01}, {"nombre": "VARBERG           &", "pais": "SW", "lat": 57.117, "lon": 12.26}, {"nombre": "NASHUVUD", "pais": "SW", "lat": 58.9, "lon": 13.25}, {"nombre": "GOTEBORG-SOL", "pais": "SW", "lat": 57.683, "lon": 11.98}, {"nombre": "SKARA", "pais": "SW", "lat": 58.383, "lon": 13.25}, {"nombre": "SKOVDE", "pais": "SW", "lat": 58.456, "lon": 13.97}, {"nombre": "RANGEDALA", "pais": "SW", "lat": 57.783, "lon": 13.16}, {"nombre": "DALSJOFORS", "pais": "SW", "lat": 57.717, "lon": 13.08}, {"nombre": "HESTRA", "pais": "SW", "lat": 57.4, "lon": 13.53}, {"nombre": "ULLARED", "pais": "SW", "lat": 57.117, "lon": 12.78}, {"nombre": "KROPPEFJALL-GRANAN", "pais": "SW", "lat": 58.6, "lon": 12.2}, {"nombre": "SNAVLUNDA", "pais": "SW", "lat": 58.967, "lon": 14.9}, {"nombre": "HALLUM", "pais": "SW", "lat": 58.317, "lon": 13.03}, {"nombre": "FAGRE", "pais": "SW", "lat": 58.65, "lon": 14.13}, {"nombre": "KARLSBORG", "pais": "SW", "lat": 58.517, "lon": 14.51}, {"nombre": "AXSTAL", "pais": "SW", "lat": 58.567, "lon": 14.56}, {"nombre": "GARDSJO", "pais": "SW", "lat": 58.883, "lon": 14.38}, {"nombre": "VISINGSO", "pais": "SW", "lat": 58.1, "lon": 14.41}, {"nombre": "TOMTABACKEN", "pais": "SW", "lat": 57.5, "lon": 14.46}, {"nombre": "JONKOPING", "pais": "SW", "lat": 57.758, "lon": 14.06}, {"nombre": "MALEXANDER", "pais": "SW", "lat": 58.067, "lon": 15.23}, {"nombre": "KYMBO", "pais": "SW", "lat": 58.083, "lon": 13.78}, {"nombre": "HABO", "pais": "SW", "lat": 57.917, "lon": 14.08}, {"nombre": "KETTSTAKA", "pais": "SW", "lat": 58.717, "lon": 15.03}, {"nombre": "NASSJO", "pais": "SW", "lat": 57.65, "lon": 14.7}, {"nombre": "HAGSHULT", "pais": "SW", "lat": 57.292, "lon": 14.13}, {"nombre": "HORN", "pais": "SW", "lat": 57.883, "lon": 15.86}, {"nombre": "KOLMARDEN-STROMSFORS", "pais": "SW", "lat": 58.683, "lon": 16.31}, {"nombre": "GLADHAMMAR", "pais": "SW", "lat": 57.7, "lon": 16.46}, {"nombre": "ZINKGRUVAN", "pais": "SW", "lat": 58.8, "lon": 15.11}, {"nombre": "KVARN", "pais": "SW", "lat": 58.65, "lon": 15.43}, {"nombre": "MALMEN", "pais": "SW", "lat": 58.402, "lon": 15.52}, {"nombre": "SAAB", "pais": "SW", "lat": 58.406, "lon": 15.68}, {"nombre": "HARSTENA", "pais": "SW", "lat": 58.25, "lon": 17.01}, {"nombre": "ANGELHOLM", "pais": "SW", "lat": 56.283, "lon": 12.83}, {"nombre": "MALEXANDER", "pais": "SW", "lat": 58.067, "lon": 15.23}, {"nombre": "HULTSFRED", "pais": "SW", "lat": 57.526, "lon": 15.82}, {"nombre": "MALILLA", "pais": "SW", "lat": 57.4, "lon": 15.81}, {"nombre": "LANDSORT", "pais": "SW", "lat": 58.75, "lon": 17.86}, {"nombre": "ALLGUNNEN", "pais": "SW", "lat": 57.067, "lon": 15.96}, {"nombre": "NORRKOPING/BRAVALLA", "pais": "SW", "lat": 58.617, "lon": 16.11}, {"nombre": "KUNGSANGEN", "pais": "SW", "lat": 58.586, "lon": 16.25}, {"nombre": "NYKOPING/SKAVST AFB", "pais": "SW", "lat": 58.783, "lon": 16.91}, {"nombre": "OLANDS NORRA UDDE-SOL", "pais": "SW", "lat": 57.367, "lon": 17.1}, {"nombre": "NORRKOPING", "pais": "SW", "lat": 58.583, "lon": 16.15}, {"nombre": "OLANDS NORRA UDDE", "pais": "SW", "lat": 57.367, "lon": 17.1}, {"nombre": "GLADHAMMAR", "pais": "SW", "lat": 57.717, "lon": 16.46}, {"nombre": "STABBO (AUT)", "pais": "SW", "lat": 58.967, "lon": 18.45}, {"nombre": "UTO ISLAND", "pais": "SW", "lat": 58.95, "lon": 18.26}, {"nombre": "LANDSORT (LGT-H)", "pais": "SW", "lat": 58.75, "lon": 17.86}, {"nombre": "GUSTAF DALEN", "pais": "SW", "lat": 58.6, "lon": 17.46}, {"nombre": "GOTSKA SANDON", "pais": "SW", "lat": 58.4, "lon": 19.2}, {"nombre": "HARSTENA", "pais": "SW", "lat": 58.25, "lon": 17.01}, {"nombre": "FAROSUND-AR", "pais": "SW", "lat": 57.917, "lon": 18.95}, {"nombre": "FARO ISLAND", "pais": "SW", "lat": 57.9, "lon": 19.16}, {"nombre": "GOTSKA SANDON", "pais": "SW", "lat": 58.4, "lon": 19.2}, {"nombre": "VISBY", "pais": "SW", "lat": 57.663, "lon": 18.34}, {"nombre": "VISBY AEROLOGISKA STATION", "pais": "SW", "lat": 57.65, "lon": 18.35}, {"nombre": "OLANDS NORRA UDDE", "pais": "SW", "lat": 57.367, "lon": 17.1}, {"nombre": "VASTERGARN", "pais": "SW", "lat": 57.433, "lon": 18.15}, {"nombre": "STORA KARLSO(LGT-H)", "pais": "SW", "lat": 57.3, "lon": 17.96}, {"nombre": "ROMA", "pais": "SW", "lat": 57.55, "lon": 18.43}, {"nombre": "HERRVIK", "pais": "SW", "lat": 57.417, "lon": 18.91}, {"nombre": "KAJAANI", "pais": "FI", "lat": 64.283, "lon": 27.68}, {"nombre": "OSTERGARNSHOLM", "pais": "SW", "lat": 57.433, "lon": 18.98}, {"nombre": "NASUDDEN", "pais": "SW", "lat": 57.067, "lon": 18.21}, {"nombre": "GLOMMEN", "pais": "SW", "lat": 56.933, "lon": 12.36}, {"nombre": "HALLANDSASEN", "pais": "SW", "lat": 56.4, "lon": 12.95}, {"nombre": "BROEN", "pais": "SW", "lat": 56.867, "lon": 12.66}, {"nombre": "HALMSTAD", "pais": "SW", "lat": 56.691, "lon": 12.82}, {"nombre": "HALLANDS VADERO", "pais": "SW", "lat": 56.45, "lon": 12.55}, {"nombre": "KULLEN (LGT-H)", "pais": "SW", "lat": 56.3, "lon": 12.45}, {"nombre": "ANGELHOLM/BARKAKRA", "pais": "SW", "lat": 56.283, "lon": 12.08}, {"nombre": "RYNGE", "pais": "SW", "lat": 55.467, "lon": 13.66}, {"nombre": "ORJA (AUT)", "pais": "SW", "lat": 55.867, "lon": 12.86}, {"nombre": "HELSINGBORG", "pais": "SW", "lat": 56.033, "lon": 12.76}, {"nombre": "OSKARSGRUNDET", "pais": "SW", "lat": 55.6, "lon": 12.85}, {"nombre": "FALSTERBO A", "pais": "SW", "lat": 55.383, "lon": 12.81}, {"nombre": "KLAGSHAMN (PORT)", "pais": "SW", "lat": 55.517, "lon": 12.91}, {"nombre": "FALSTERBO", "pais": "SW", "lat": 55.383, "lon": 12.81}, {"nombre": "MAGLARP (AUT)", "pais": "SW", "lat": 55.383, "lon": 13.06}, {"nombre": "TORUP", "pais": "SW", "lat": 56.95, "lon": 13.06}, {"nombre": "TORUP", "pais": "SW", "lat": 56.967, "lon": 13.06}, {"nombre": "LJUNGBY", "pais": "SW", "lat": 56.85, "lon": 13.88}, {"nombre": "HORBY", "pais": "SW", "lat": 55.867, "lon": 13.66}, {"nombre": "MARKARYD", "pais": "SW", "lat": 56.467, "lon": 13.65}, {"nombre": "MARKARYD", "pais": "SW", "lat": 56.433, "lon": 13.6}, {"nombre": "SKILLINGE", "pais": "SW", "lat": 55.483, "lon": 14.31}, {"nombre": "OSBY", "pais": "SW", "lat": 56.367, "lon": 13.95}, {"nombre": "LUND-SOL", "pais": "SW", "lat": 55.717, "lon": 13.21}, {"nombre": "HANO", "pais": "SW", "lat": 56.017, "lon": 14.85}, {"nombre": "HASTVEDA", "pais": "SW", "lat": 56.283, "lon": 13.93}, {"nombre": "LINDEROD", "pais": "SW", "lat": 55.967, "lon": 13.85}, {"nombre": "LJUNGBYHED(SWE-AFB)", "pais": "SW", "lat": 56.083, "lon": 13.23}, {"nombre": "UTKLIPPAN", "pais": "SW", "lat": 55.95, "lon": 15.7}, {"nombre": "LUND SOL", "pais": "SW", "lat": 55.717, "lon": 13.21}, {"nombre": "MALMO", "pais": "SW", "lat": 55.567, "lon": 13.06}, {"nombre": "STURUP", "pais": "SW", "lat": 55.53, "lon": 13.37}, {"nombre": "SMYGEHUK (LGT-H)", "pais": "SW", "lat": 55.333, "lon": 13.35}, {"nombre": "YSTAD             &", "pais": "SW", "lat": 55.433, "lon": 13.83}, {"nombre": "VAXJO/URASA(SAFB)", "pais": "SW", "lat": 56.867, "lon": 14.8}, {"nombre": "KRONOBERG", "pais": "SW", "lat": 56.929, "lon": 14.72}, {"nombre": "VAXJO-SOL", "pais": "SW", "lat": 56.933, "lon": 14.73}, {"nombre": "OLANDS SODRA UDDE", "pais": "SW", "lat": 56.2, "lon": 16.4}, {"nombre": "OLANDSBRON LAG", "pais": "SW", "lat": 56.667, "lon": 16.46}, {"nombre": "VAXJO", "pais": "SW", "lat": 56.85, "lon": 14.83}, {"nombre": "HANO ISLAND (LGT-H)", "pais": "SW", "lat": 56.017, "lon": 14.85}, {"nombre": "KRISTIANSTAD", "pais": "SW", "lat": 55.922, "lon": 14.08}, {"nombre": "KRISTIANSTAD", "pais": "SW", "lat": 56.017, "lon": 14.1}, {"nombre": "RINKABY", "pais": "SW", "lat": 55.983, "lon": 14.3}, {"nombre": "STENSHUVUD        &", "pais": "SW", "lat": 55.667, "lon": 14.26}, {"nombre": "SANDHAMMAREN(LGT-H)", "pais": "SW", "lat": 55.383, "lon": 14.2}, {"nombre": "KOSTA (ORREFORS)", "pais": "SW", "lat": 56.833, "lon": 15.46}, {"nombre": "RONNEBY", "pais": "SW", "lat": 56.267, "lon": 15.26}, {"nombre": "KARLSKRONA-SOL", "pais": "SW", "lat": 56.117, "lon": 15.61}, {"nombre": "UNGSKAR", "pais": "SW", "lat": 56.033, "lon": 15.8}, {"nombre": "KARLSKRONA-SODERSTJERNA", "pais": "SW", "lat": 56.15, "lon": 15.58}, {"nombre": "KALMAR", "pais": "SW", "lat": 56.683, "lon": 16.3}, {"nombre": "KALMAR", "pais": "SW", "lat": 56.686, "lon": 16.28}, {"nombre": "OLANDS SODRA UDDE", "pais": "SW", "lat": 56.2, "lon": 16.4}, {"nombre": "HOBURG A", "pais": "SW", "lat": 56.917, "lon": 18.15}, {"nombre": "HOBURG", "pais": "SW", "lat": 56.917, "lon": 18.15}, {"nombre": "VRETA KLOSTER", "pais": "SW", "lat": 58.483, "lon": 15.51}, {"nombre": "OLANDS SODRA GRUND", "pais": "SW", "lat": 56.067, "lon": 16.68}, {"nombre": "KILPISJARVI SAANA", "pais": "FI", "lat": 69.05, "lon": 20.85}, {"nombre": "INARI KAAMANEN", "pais": "FI", "lat": 69.133, "lon": 27.26}, {"nombre": "ESPOO SEPANKYLA", "pais": "FI", "lat": 60.2, "lon": 24.73}, {"nombre": "HATTULA LEPAA AWS", "pais": "FI", "lat": 61.117, "lon": 24.31}, {"nombre": "PELKOSENNIEMI PYHATUNTURI", "pais": "FI", "lat": 67.017, "lon": 27.21}, {"nombre": "LOHJA PORLA", "pais": "FI", "lat": 60.25, "lon": 24.05}, {"nombre": "KARVIA ALKKIA", "pais": "FI", "lat": 62.183, "lon": 22.8}, {"nombre": "VESANTO SONKARI", "pais": "FI", "lat": 62.917, "lon": 26.41}, {"nombre": "VAASA KESKUSTA", "pais": "FI", "lat": 63.1, "lon": 21.61}, {"nombre": "HAMEENLINNA LAMMI EVO", "pais": "FI", "lat": 61.217, "lon": 25.13}, {"nombre": "VAALA PELSO", "pais": "FI", "lat": 64.5, "lon": 26.44}, {"nombre": "HYRYNSALM KYTOMAKI", "pais": "FI", "lat": 64.833, "lon": 28.23}, {"nombre": "RANUA KK", "pais": "FI", "lat": 65.933, "lon": 26.51}, {"nombre": "KITTILA POKKA", "pais": "FI", "lat": 68.167, "lon": 25.76}, {"nombre": "PUUMALA KK URHEILUKENTTA", "pais": "FI", "lat": 61.517, "lon": 28.18}, {"nombre": "SODANKYLA KOKKA", "pais": "FI", "lat": 67.817, "lon": 27.75}, {"nombre": "KITTILA", "pais": "FI", "lat": 67.701, "lon": 24.84}, {"nombre": "KOKKOLA TANKAR", "pais": "FI", "lat": 63.95, "lon": 22.85}, {"nombre": "INARI SAARISELKA", "pais": "FI", "lat": 68.417, "lon": 27.41}, {"nombre": "KITTILA LEVITUNTURI", "pais": "FI", "lat": 67.783, "lon": 24.85}, {"nombre": "LUMPARLAND LANGNAS HARBOUR", "pais": "FI", "lat": 60.117, "lon": 20.3}, {"nombre": "HALSUA KANALA PUROLA", "pais": "FI", "lat": 63.45, "lon": 24.45}, {"nombre": "ENONTEKIO NAKKALA", "pais": "FI", "lat": 68.6, "lon": 23.58}, {"nombre": "ASIKKALA PULKKILANHARJU", "pais": "FI", "lat": 61.267, "lon": 25.51}, {"nombre": "TAIPALSAARI KYLANIEMI", "pais": "FI", "lat": 61.3, "lon": 28.18}, {"nombre": "JAMSA HIMOS", "pais": "FI", "lat": 61.883, "lon": 25.33}, {"nombre": "SAVOLINNA RUUNAVUORI", "pais": "FI", "lat": 61.833, "lon": 28.85}, {"nombre": "PUUMALA KK", "pais": "FI", "lat": 61.533, "lon": 28.2}, {"nombre": "KUOPIO RITONIEMI", "pais": "FI", "lat": 62.8, "lon": 27.9}, {"nombre": "LAPPEENRANTA KONNUNSUO", "pais": "FI", "lat": 61.033, "lon": 28.56}, {"nombre": "PARIKKALA KOITSANLAHTI", "pais": "FI", "lat": 61.45, "lon": 29.46}, {"nombre": "VIRRAT AIJANNEVA", "pais": "FI", "lat": 62.333, "lon": 23.55}, {"nombre": "JUVA PARTALA", "pais": "FI", "lat": 61.9, "lon": 27.88}, {"nombre": "TOHOLAMPI LAITALA", "pais": "FI", "lat": 63.817, "lon": 24.16}, {"nombre": "PYHAJARVI OL OJAKYLA", "pais": "FI", "lat": 63.733, "lon": 25.7}, {"nombre": "SOTKAMO KUOLANIEMI", "pais": "FI", "lat": 64.117, "lon": 28.33}, {"nombre": "JOMALA JOMLABY", "pais": "FI", "lat": 60.183, "lon": 19.98}, {"nombre": "KEMIONSAARI VANO", "pais": "FI", "lat": 59.867, "lon": 22.2}, {"nombre": "TAMPERE SATAKUNNANKATU", "pais": "FI", "lat": 61.5, "lon": 23.76}, {"nombre": "SALLA NARUSKA", "pais": "FI", "lat": 67.167, "lon": 29.18}, {"nombre": "HANKO TULLINIEMI", "pais": "FI", "lat": 59.817, "lon": 22.91}, {"nombre": "TURKU RAJAKARI", "pais": "FI", "lat": 60.383, "lon": 22.1}, {"nombre": "VARKAUS", "pais": "FI", "lat": 62.171, "lon": 27.86}, {"nombre": "HANKO TVARMINNE", "pais": "FI", "lat": 59.85, "lon": 23.25}, {"nombre": "PORI TAHKOLUOTO HARBOUR", "pais": "FI", "lat": 61.633, "lon": 21.38}, {"nombre": "KRISTIINANKAUPUNKI LIGHTHOUSE", "pais": "FI", "lat": 62.2, "lon": 21.16}, {"nombre": "KANKAANPAA NIINISALO AIRFIELD", "pais": "FI", "lat": 61.833, "lon": 22.46}, {"nombre": "HAMEENLINNA KATINEN", "pais": "FI", "lat": 61.0, "lon": 24.5}, {"nombre": "YLIVIESKA AIRFIELD", "pais": "FI", "lat": 64.05, "lon": 24.71}, {"nombre": "SALO KARKKA", "pais": "FI", "lat": 60.367, "lon": 23.11}, {"nombre": "RAASEPORI JUSSARO", "pais": "FI", "lat": 59.817, "lon": 23.58}, {"nombre": "VIHTI MAASOJA", "pais": "FI", "lat": 60.417, "lon": 24.4}, {"nombre": "PORVOO HARABACKA", "pais": "FI", "lat": 60.4, "lon": 25.6}, {"nombre": "KUUSAMO RUKA TALVIJARVI", "pais": "FI", "lat": 66.167, "lon": 29.13}, {"nombre": "RAUMA KYLMAPIHLAJA", "pais": "FI", "lat": 61.15, "lon": 21.3}, {"nombre": "KOKEMAKI PEIPOHJA HYRKOLA", "pais": "FI", "lat": 61.267, "lon": 22.25}, {"nombre": "TAMPERE HARMALA", "pais": "FI", "lat": 61.467, "lon": 23.75}, {"nombre": "KITTILA LOMPOLONVUOMA", "pais": "FI", "lat": 68.0, "lon": 24.21}, {"nombre": "LUHANKA JUDINSALO", "pais": "FI", "lat": 61.7, "lon": 25.5}, {"nombre": "ILOMANTSI POTSONVAARA", "pais": "FI", "lat": 63.15, "lon": 31.05}, {"nombre": "HAMEENLINNA LAMMI PAPPILA", "pais": "FI", "lat": 61.05, "lon": 25.05}, {"nombre": "HEINOLA ASEMANTAUS", "pais": "FI", "lat": 61.2, "lon": 26.05}, {"nombre": "KAUHAJOKI KUJA-KOKKO", "pais": "FI", "lat": 62.417, "lon": 22.18}, {"nombre": "JUUPAJOKI HYYTIALA", "pais": "FI", "lat": 61.85, "lon": 24.28}, {"nombre": "JOUTSA LEIVONMAKI SAVENAHO", "pais": "FI", "lat": 61.883, "lon": 26.1}, {"nombre": "RANTASALMI RUKKASLUOTO", "pais": "FI", "lat": 62.067, "lon": 28.56}, {"nombre": "TURKU ARTUKAINEN", "pais": "FI", "lat": 60.45, "lon": 22.18}, {"nombre": "SALO KIIKALA AIRFIELD", "pais": "FI", "lat": 60.467, "lon": 23.65}, {"nombre": "SAVONLINNA PUNKAHARJU", "pais": "FI", "lat": 61.8, "lon": 29.31}, {"nombre": "KORSNAS BREDSKARET", "pais": "FI", "lat": 62.933, "lon": 21.18}, {"nombre": "STROMMINGSBADN", "pais": "FI", "lat": 62.983, "lon": 20.73}, {"nombre": "LAMMI ISO-EVO", "pais": "FI", "lat": 61.183, "lon": 25.03}, {"nombre": "ALAJARVI MOKSY", "pais": "FI", "lat": 63.083, "lon": 24.26}, {"nombre": "KUOPIO MAANINKA", "pais": "FI", "lat": 63.15, "lon": 27.31}, {"nombre": "RAUTAVAARA YLA-LUOSTA", "pais": "FI", "lat": 63.383, "lon": 28.66}, {"nombre": "KUMLINGE KK", "pais": "FI", "lat": 60.25, "lon": 20.75}, {"nombre": "JUUKA NIEMELA", "pais": "FI", "lat": 63.233, "lon": 29.23}, {"nombre": "LIPERI TUISKAVANLUOTO", "pais": "FI", "lat": 62.55, "lon": 29.66}, {"nombre": "KIRKKONUMMI MAKILUOTO", "pais": "FI", "lat": 59.917, "lon": 24.35}, {"nombre": "HELSINKI HARMAJA", "pais": "FI", "lat": 60.1, "lon": 24.98}, {"nombre": "LIEKSA LAMPELA", "pais": "FI", "lat": 63.317, "lon": 30.05}, {"nombre": "HAAPAVEST MUSTIKKAMAKI", "pais": "FI", "lat": 64.15, "lon": 25.41}, {"nombre": "VALTIMO KK", "pais": "FI", "lat": 63.667, "lon": 28.83}, {"nombre": "KUHMO KALLIOJOKI", "pais": "FI", "lat": 64.3, "lon": 30.16}, {"nombre": "RAAHE NAHKIAINEN", "pais": "FI", "lat": 64.617, "lon": 23.9}, {"nombre": "ENONTEKIO KILPISJARVI", "pais": "FI", "lat": 69.05, "lon": 20.78}, {"nombre": "SIIKAJOKI REVONLAHTI", "pais": "FI", "lat": 64.683, "lon": 25.08}, {"nombre": "TAIVALKOSKI KK URHEILUTIE", "pais": "FI", "lat": 65.583, "lon": 28.21}, {"nombre": "UTSJOKI KEVO", "pais": "FI", "lat": 69.75, "lon": 27.0}, {"nombre": "KAAMANEN", "pais": "FI", "lat": 69.1, "lon": 27.21}, {"nombre": "IVALO", "pais": "FI", "lat": 68.607, "lon": 27.4}, {"nombre": "ENONTEKIO", "pais": "FI", "lat": 68.363, "lon": 23.42}, {"nombre": "INARI SEVETTIJARVI", "pais": "FI", "lat": 69.583, "lon": 28.85}, {"nombre": "KUUSAMO KIUTAKONGAS", "pais": "FI", "lat": 66.367, "lon": 29.31}, {"nombre": "YLITORNIO MELTOSJARVI", "pais": "FI", "lat": 66.533, "lon": 24.65}, {"nombre": "ROVANIEMI APUKKA", "pais": "FI", "lat": 66.583, "lon": 26.01}, {"nombre": "KEMIJARVI AIRFIELD", "pais": "FI", "lat": 66.717, "lon": 27.16}, {"nombre": "SAVUKOSKI KK", "pais": "FI", "lat": 67.283, "lon": 28.18}, {"nombre": "SODANKYLA VUOTSO", "pais": "FI", "lat": 68.083, "lon": 27.18}, {"nombre": "SAARISELKA KAUNISPAA", "pais": "FI", "lat": 68.433, "lon": 27.45}, {"nombre": "INARI RAJAJOOSEPPI", "pais": "FI", "lat": 68.483, "lon": 28.3}, {"nombre": "SALLA VARRIOTUNTURI", "pais": "FI", "lat": 67.75, "lon": 29.61}, {"nombre": "MUONIO LAUKUKERO", "pais": "FI", "lat": 68.067, "lon": 24.03}, {"nombre": "MUONIO SAMMALTUNTURI", "pais": "FI", "lat": 67.967, "lon": 24.11}, {"nombre": "MUONIO ALAMUONIO", "pais": "FI", "lat": 67.967, "lon": 23.68}, {"nombre": "KITTILA", "pais": "FI", "lat": 67.7, "lon": 24.83}, {"nombre": "KITTILA KENTTAROVA", "pais": "FI", "lat": 67.983, "lon": 24.25}, {"nombre": "UTSJOKI NUORGAM", "pais": "FI", "lat": 70.083, "lon": 27.9}, {"nombre": "INARI VAYLA", "pais": "FI", "lat": 69.067, "lon": 27.5}, {"nombre": "KAARINA YLTOINEN", "pais": "FI", "lat": 60.383, "lon": 22.55}, {"nombre": "HYVINKAA HYVINKAANKYLA", "pais": "FI", "lat": 60.6, "lon": 24.8}, {"nombre": "KOUVOLA ANJALA", "pais": "FI", "lat": 60.7, "lon": 26.81}, {"nombre": "VIROLAHTI KOIVUNIEMI", "pais": "FI", "lat": 60.533, "lon": 27.66}, {"nombre": "TOHMAJARVI KEMIE", "pais": "FI", "lat": 62.233, "lon": 30.35}, {"nombre": "SEINAJOKI PELMAA", "pais": "FI", "lat": 62.933, "lon": 22.48}, {"nombre": "VIEREMA KAARAKKALA", "pais": "FI", "lat": 63.833, "lon": 27.21}, {"nombre": "INARI NELLIM", "pais": "FI", "lat": 68.85, "lon": 28.3}, {"nombre": "SODANKYLA", "pais": "FI", "lat": 67.395, "lon": 26.61}, {"nombre": "PELLO CENTRE", "pais": "FI", "lat": 66.767, "lon": 23.96}, {"nombre": "ROVANIEMI", "pais": "FI", "lat": 66.565, "lon": 25.83}, {"nombre": "ROVANIEMI RAUTATIEASEMA", "pais": "FI", "lat": 66.5, "lon": 25.71}, {"nombre": "SALLA", "pais": "FI", "lat": 66.817, "lon": 28.66}, {"nombre": "SALLA KK MYLLYTIE", "pais": "FI", "lat": 66.833, "lon": 28.66}, {"nombre": "VARKAUS KOLSUANNIEMI", "pais": "FI", "lat": 62.317, "lon": 27.9}, {"nombre": "OULU OULUNSALO PELLONPAA", "pais": "FI", "lat": 64.933, "lon": 25.36}, {"nombre": "KOKKOLA HOLLIHAKA", "pais": "FI", "lat": 63.85, "lon": 23.11}, {"nombre": "INARI ANGELI LINTUPUOLISELKA", "pais": "FI", "lat": 68.9, "lon": 25.73}, {"nombre": "INARI KIRAKKAJARVI", "pais": "FI", "lat": 69.583, "lon": 28.9}, {"nombre": "PUOLANKA PALJAKKA", "pais": "FI", "lat": 64.667, "lon": 28.05}, {"nombre": "KITTILA KK", "pais": "FI", "lat": 67.65, "lon": 24.9}, {"nombre": "KEMI AJOS", "pais": "FI", "lat": 65.667, "lon": 24.51}, {"nombre": "KEMI I LIGHTHOUSE", "pais": "FI", "lat": 65.383, "lon": 24.1}, {"nombre": "KEMI TORNIO", "pais": "FI", "lat": 65.782, "lon": 24.59}, {"nombre": "KUIVANIEMI", "pais": "FI", "lat": 65.517, "lon": 25.26}, {"nombre": "PUDASJARVI AIRFIELD", "pais": "FI", "lat": 65.417, "lon": 26.96}, {"nombre": "PUDASJARVI", "pais": "FI", "lat": 65.367, "lon": 27.01}, {"nombre": "KUUSAMO RUKATUNTURI", "pais": "FI", "lat": 66.167, "lon": 29.15}, {"nombre": "KUUSAMO", "pais": "FI", "lat": 65.988, "lon": 29.23}, {"nombre": "RAAHE LAPALUOTO HARBOUR", "pais": "FI", "lat": 64.667, "lon": 24.4}, {"nombre": "HAILUOTO MARJANIEMI", "pais": "FI", "lat": 65.033, "lon": 24.56}, {"nombre": "HAILUOTO ISLAND", "pais": "FI", "lat": 65.033, "lon": 24.8}, {"nombre": "YLIVIESKA", "pais": "FI", "lat": 64.061, "lon": 24.71}, {"nombre": "OULU", "pais": "FI", "lat": 64.93, "lon": 25.35}, {"nombre": "OULU VIHREASAARI HARBOUR", "pais": "FI", "lat": 65.0, "lon": 25.4}, {"nombre": "SUOMUSSALMI", "pais": "FI", "lat": 64.9, "lon": 29.01}, {"nombre": "TORNIO TORPPI", "pais": "FI", "lat": 65.85, "lon": 24.16}, {"nombre": "RANUA AIRFIELD", "pais": "FI", "lat": 65.983, "lon": 26.36}, {"nombre": "KITTILA MATOROVA", "pais": "FI", "lat": 68.0, "lon": 24.23}, {"nombre": "KAJAANI PETAISENNISKA", "pais": "FI", "lat": 64.217, "lon": 27.75}, {"nombre": "INARI SEITALAASSA", "pais": "FI", "lat": 69.05, "lon": 27.75}, {"nombre": "SUOMUSSALMI PESIO", "pais": "FI", "lat": 64.933, "lon": 28.75}, {"nombre": "UTSJOKI KEVO KEVOJARVI", "pais": "FI", "lat": 69.75, "lon": 27.01}, {"nombre": "KAJAANI", "pais": "FI", "lat": 64.285, "lon": 27.69}, {"nombre": "MASSKAR", "pais": "FI", "lat": 63.733, "lon": 22.58}, {"nombre": "ULKOKALLA", "pais": "FI", "lat": 64.333, "lon": 23.45}, {"nombre": "KRUUNUPYY", "pais": "FI", "lat": 63.721, "lon": 23.14}, {"nombre": "NIVALA", "pais": "FI", "lat": 63.917, "lon": 24.96}, {"nombre": "KEMIONSAARI KEMIO", "pais": "FI", "lat": 60.167, "lon": 22.75}, {"nombre": "KALAJOKI ULKOKALLA", "pais": "FI", "lat": 64.333, "lon": 23.45}, {"nombre": "MUSTASAARI VALASSAARET", "pais": "FI", "lat": 63.433, "lon": 21.06}, {"nombre": "VAASA", "pais": "FI", "lat": 63.051, "lon": 21.76}, {"nombre": "VAASA", "pais": "FI", "lat": 63.1, "lon": 21.58}, {"nombre": "KAUHAVA", "pais": "FI", "lat": 63.127, "lon": 23.05}, {"nombre": "KRUUNUPYY", "pais": "FI", "lat": 63.717, "lon": 23.13}, {"nombre": "KAUHAVA KK UUNIMAANTIE", "pais": "FI", "lat": 63.117, "lon": 23.05}, {"nombre": "VIITASAARI", "pais": "FI", "lat": 63.083, "lon": 25.86}, {"nombre": "KUOPIO", "pais": "FI", "lat": 63.007, "lon": 27.79}, {"nombre": "LAPPEENRANTA HIEKKAPAKKA", "pais": "FI", "lat": 61.2, "lon": 28.46}, {"nombre": "PIETARSAARI KALLAN", "pais": "FI", "lat": 63.75, "lon": 22.51}, {"nombre": "MOIKIPAA", "pais": "FI", "lat": 62.883, "lon": 21.1}, {"nombre": "AHTARI MYLLYMAKI", "pais": "FI", "lat": 62.533, "lon": 24.21}, {"nombre": "ILMAJOKI", "pais": "FI", "lat": 62.7, "lon": 22.83}, {"nombre": "SEINAJOKI", "pais": "FI", "lat": 62.692, "lon": 22.83}, {"nombre": "PORI RAILWAY STATION", "pais": "FI", "lat": 61.483, "lon": 21.78}, {"nombre": "MULTIA KARHILA", "pais": "FI", "lat": 62.517, "lon": 24.8}, {"nombre": "JOENSUU LINNUNLAHTI", "pais": "FI", "lat": 62.6, "lon": 29.71}, {"nombre": "JOENSUU", "pais": "FI", "lat": 62.663, "lon": 29.6}, {"nombre": "KASKINEN SALGRUND", "pais": "FI", "lat": 62.333, "lon": 21.18}, {"nombre": "HELSINKI RAILWAY STATION SQ", "pais": "FI", "lat": 60.167, "lon": 24.95}, {"nombre": "JYVASKYLA", "pais": "FI", "lat": 62.399, "lon": 25.67}, {"nombre": "KOKEMAKI TULKKILA", "pais": "FI", "lat": 61.25, "lon": 22.35}, {"nombre": "ILOMANTSI MEKRIJARVI", "pais": "FI", "lat": 62.767, "lon": 30.98}, {"nombre": "KANKAANPAA NIINISALO PUOLVOIM", "pais": "FI", "lat": 61.833, "lon": 22.46}, {"nombre": "TAMPERE SIILINKARI", "pais": "FI", "lat": 61.517, "lon": 23.75}, {"nombre": "TAMPERE PIRKKALA", "pais": "FI", "lat": 61.414, "lon": 23.6}, {"nombre": "HALLI", "pais": "FI", "lat": 61.856, "lon": 24.78}, {"nombre": "JAMSA HALLI LENTOASEMANTIE", "pais": "FI", "lat": 61.867, "lon": 24.81}, {"nombre": "MIKKELI", "pais": "FI", "lat": 61.687, "lon": 27.2}, {"nombre": "VARKAUS", "pais": "FI", "lat": 62.167, "lon": 27.86}, {"nombre": "SAVONLINNA", "pais": "FI", "lat": 61.943, "lon": 28.94}, {"nombre": "SOMERO SALKOLA", "pais": "FI", "lat": 60.65, "lon": 23.8}, {"nombre": "PARAINEN FAGERHOLM", "pais": "FI", "lat": 60.117, "lon": 21.7}, {"nombre": "PORI", "pais": "FI", "lat": 61.462, "lon": 21.8}, {"nombre": "HAMEENLINNA", "pais": "FI", "lat": 60.983, "lon": 24.45}, {"nombre": "KUOPIO SAVILAHTI", "pais": "FI", "lat": 62.9, "lon": 27.63}, {"nombre": "KOUVOLA UTTI LENTOPORTINTIE", "pais": "FI", "lat": 60.883, "lon": 26.93}, {"nombre": "VAASA KLEMETTILA", "pais": "FI", "lat": 63.1, "lon": 21.63}, {"nombre": "LAPPEENRANTA", "pais": "FI", "lat": 61.045, "lon": 28.14}, {"nombre": "LAPPEENRANTA LEPOLA", "pais": "FI", "lat": 61.05, "lon": 28.21}, {"nombre": "RAIJALA", "pais": "FI", "lat": 61.183, "lon": 22.61}, {"nombre": "KUUSKAJASKARI", "pais": "FI", "lat": 61.133, "lon": 21.36}, {"nombre": "JOKIOINEN", "pais": "FI", "lat": 60.817, "lon": 23.5}, {"nombre": "KUSTAVI ISOKARI", "pais": "FI", "lat": 60.717, "lon": 21.03}, {"nombre": "LAHTI LAUNE", "pais": "FI", "lat": 60.967, "lon": 25.63}, {"nombre": "UTTI", "pais": "FI", "lat": 60.896, "lon": 26.93}, {"nombre": "KOTKA HAAPASAARI", "pais": "FI", "lat": 60.283, "lon": 27.18}, {"nombre": "KOTKA KIRKONMAA", "pais": "FI", "lat": 60.383, "lon": 27.05}, {"nombre": "MARIEHAMN", "pais": "FI", "lat": 60.122, "lon": 19.89}, {"nombre": "JOMALA", "pais": "FI", "lat": 60.15, "lon": 19.86}, {"nombre": "TURKU", "pais": "FI", "lat": 60.514, "lon": 22.26}, {"nombre": "SUOMUSJARVI", "pais": "FI", "lat": 60.4, "lon": 23.76}, {"nombre": "HELSINKI VANTAA", "pais": "FI", "lat": 60.317, "lon": 24.96}, {"nombre": "HELSINKI MALMI", "pais": "FI", "lat": 60.255, "lon": 25.04}, {"nombre": "KOTKA RANKKI", "pais": "FI", "lat": 60.383, "lon": 26.96}, {"nombre": "HELSINKI KAISANIEMI", "pais": "FI", "lat": 60.183, "lon": 24.95}, {"nombre": "KOKAR BOGSKAR", "pais": "FI", "lat": 59.5, "lon": 20.35}, {"nombre": "LEMLAND NYHAMN", "pais": "FI", "lat": 59.967, "lon": 19.95}, {"nombre": "PARAINEN UTO", "pais": "FI", "lat": 59.783, "lon": 21.36}, {"nombre": "HANKO RUSSARO", "pais": "FI", "lat": 59.767, "lon": 22.95}, {"nombre": "NURMIJARVI GEOPHSICAL OBSERVA", "pais": "FI", "lat": 60.517, "lon": 24.65}, {"nombre": "INKOO BAGASKAR", "pais": "FI", "lat": 59.933, "lon": 24.01}, {"nombre": "ESPOO TAPIOLA", "pais": "FI", "lat": 60.183, "lon": 24.78}, {"nombre": "KATAJALUOTO", "pais": "FI", "lat": 60.1, "lon": 24.91}, {"nombre": "PORVOO KALLBADAGRUND", "pais": "FI", "lat": 59.983, "lon": 25.6}, {"nombre": "ISOSAARI", "pais": "FI", "lat": 60.1, "lon": 25.06}, {"nombre": "HELSINKI LIGHTHOUSE", "pais": "FI", "lat": 59.95, "lon": 24.93}, {"nombre": "KUMLINGE ISLAND", "pais": "FI", "lat": 60.3, "lon": 20.75}, {"nombre": "PORVOO EMASALO", "pais": "FI", "lat": 60.2, "lon": 25.63}, {"nombre": "LOVIISA ORRENGRUND", "pais": "FI", "lat": 60.283, "lon": 26.45}, {"nombre": "HAMMARLAND MARKET", "pais": "FI", "lat": 60.3, "lon": 19.13}, {"nombre": "RYMATTYLA RAULA", "pais": "FI", "lat": 60.4, "lon": 21.95}, {"nombre": "HELSINKI KUMPULA", "pais": "FI", "lat": 60.2, "lon": 24.96}, {"nombre": "MUCKLE FLUGGA", "pais": "UK", "lat": 60.85, "lon": -0.88}, {"nombre": "BALTASOUND NO.2", "pais": "UK", "lat": 60.75, "lon": -0.85}, {"nombre": "SAXA VORD", "pais": "UK", "lat": 60.833, "lon": -0.83}, {"nombre": "SUMBURGH", "pais": "UK", "lat": 59.879, "lon": -1.29}, {"nombre": "COLLAFIRTH HILL", "pais": "UK", "lat": 60.533, "lon": -1.38}, {"nombre": "LERWICK", "pais": "UK", "lat": 60.133, "lon": -1.18}, {"nombre": "SELLA NESS", "pais": "UK", "lat": 60.45, "lon": -1.26}, {"nombre": "SCATSTA", "pais": "UK", "lat": 60.433, "lon": -1.29}, {"nombre": "UNST ISLAND", "pais": "UK", "lat": 60.733, "lon": -0.81}, {"nombre": "MUCKLE HOLM", "pais": "UK", "lat": 60.583, "lon": -1.26}, {"nombre": "FAIR ISLE", "pais": "UK", "lat": 59.533, "lon": -1.63}, {"nombre": "NORTH RONALDSAY ISL", "pais": "UK", "lat": 59.367, "lon": -2.41}, {"nombre": "SULE SKERRY", "pais": "UK", "lat": 59.083, "lon": -4.4}, {"nombre": "NORTH RONA ISLAND", "pais": "UK", "lat": 59.117, "lon": -5.81}, {"nombre": "FOULA", "pais": "UK", "lat": 60.15, "lon": -2.06}, {"nombre": "FOULA NO2", "pais": "UK", "lat": 60.117, "lon": -2.06}, {"nombre": "KIRKWALL", "pais": "UK", "lat": 58.958, "lon": -2.9}, {"nombre": "WOODVALE", "pais": "UK", "lat": 53.582, "lon": -3.05}, {"nombre": "SAINT KILDA ISLAND", "pais": "UK", "lat": 57.817, "lon": -8.56}, {"nombre": "LOCHBOISDALE", "pais": "UK", "lat": 57.15, "lon": -7.31}, {"nombre": "BENBECULA", "pais": "UK", "lat": 57.481, "lon": -7.36}, {"nombre": "SOUTH UIST RANGE", "pais": "UK", "lat": 57.333, "lon": -7.36}, {"nombre": "HYSKEIR (LGT-H)", "pais": "UK", "lat": 56.967, "lon": -6.68}, {"nombre": "BUTT OF LEWIS (LH)", "pais": "UK", "lat": 58.517, "lon": -6.26}, {"nombre": "STORNOWAY", "pais": "UK", "lat": 58.216, "lon": -6.33}, {"nombre": "WATERSTEIN", "pais": "UK", "lat": 57.433, "lon": -6.76}, {"nombre": "NEIST POINT (LGT-H)", "pais": "UK", "lat": 57.417, "lon": -6.78}, {"nombre": "ARDNAMURCHAN(LGT-H)", "pais": "UK", "lat": 56.733, "lon": -6.21}, {"nombre": "SAASAIG", "pais": "UK", "lat": 57.1, "lon": -5.83}, {"nombre": "LOCH GLASCARNOCH", "pais": "UK", "lat": 57.717, "lon": -4.88}, {"nombre": "RUBH RE", "pais": "UK", "lat": 57.867, "lon": -5.81}, {"nombre": "DIABAIG", "pais": "UK", "lat": 57.583, "lon": -5.7}, {"nombre": "AULTBEA NO2", "pais": "UK", "lat": 57.867, "lon": -5.63}, {"nombre": "BARRA ISLAND", "pais": "UK", "lat": 57.033, "lon": -7.45}, {"nombre": "BROADFORD", "pais": "UK", "lat": 57.25, "lon": -5.86}, {"nombre": "SKYE/LUSA", "pais": "UK", "lat": 57.25, "lon": -5.8}, {"nombre": "FORT WILLIAM", "pais": "UK", "lat": 56.833, "lon": -5.1}, {"nombre": "BEALACH NA BA NO2", "pais": "UK", "lat": 57.417, "lon": -5.68}, {"nombre": "KILMORY", "pais": "UK", "lat": 56.767, "lon": -6.05}, {"nombre": "AONACH MOR", "pais": "UK", "lat": 56.817, "lon": -4.96}, {"nombre": "LOCHCARRON", "pais": "UK", "lat": 57.4, "lon": -5.48}, {"nombre": "ALTNAHARRA NO2", "pais": "UK", "lat": 58.283, "lon": -4.43}, {"nombre": "LOCHLUICHART", "pais": "UK", "lat": 57.617, "lon": -4.81}, {"nombre": "TULLOCH BRIDGE", "pais": "UK", "lat": 56.867, "lon": -4.7}, {"nombre": "CAPE WRATH (LGT-H)", "pais": "UK", "lat": 58.633, "lon": -5.0}, {"nombre": "FORT AUGUSTUS", "pais": "UK", "lat": 57.133, "lon": -4.71}, {"nombre": "SHIN-IN-SUTHERLAND", "pais": "UK", "lat": 57.95, "lon": -4.41}, {"nombre": "SHIN", "pais": "UK", "lat": 57.95, "lon": -4.41}, {"nombre": "NAIRN", "pais": "UK", "lat": 57.6, "lon": -3.86}, {"nombre": "STRATHY PT. (LGT-H)", "pais": "UK", "lat": 58.6, "lon": -4.01}, {"nombre": "RACKWICK", "pais": "UK", "lat": 58.867, "lon": -3.38}, {"nombre": "DALWHINNIE", "pais": "UK", "lat": 56.933, "lon": -4.23}, {"nombre": "FOYERS", "pais": "UK", "lat": 57.267, "lon": -4.48}, {"nombre": "INVERGORDON HARBOUR", "pais": "UK", "lat": 57.683, "lon": -4.16}, {"nombre": "INVERNESS", "pais": "UK", "lat": 57.543, "lon": -4.04}, {"nombre": "TUMMEL BRIDGE", "pais": "UK", "lat": 56.7, "lon": -4.01}, {"nombre": "TARBAT NESS (CAPE)", "pais": "UK", "lat": 57.867, "lon": -3.76}, {"nombre": "TAIN RANGE (SAWS)", "pais": "UK", "lat": 57.817, "lon": -3.96}, {"nombre": "AVIEMORE", "pais": "UK", "lat": 57.2, "lon": -3.83}, {"nombre": "GLENMORE LODGE", "pais": "UK", "lat": 57.167, "lon": -3.7}, {"nombre": "CAIRNGORM SUMMIT", "pais": "UK", "lat": 57.117, "lon": -3.63}, {"nombre": "KINLOSS", "pais": "UK", "lat": 57.649, "lon": -3.56}, {"nombre": "FEALAR LODGE", "pais": "UK", "lat": 56.9, "lon": -3.63}, {"nombre": "LOSSIEMOUTH", "pais": "UK", "lat": 57.705, "lon": -3.33}, {"nombre": "GLENLIVET", "pais": "UK", "lat": 57.35, "lon": -3.35}, {"nombre": "GRANTOWN-ON-SPEY", "pais": "UK", "lat": 57.333, "lon": -3.63}, {"nombre": "CAIRNWELL", "pais": "UK", "lat": 56.883, "lon": -3.41}, {"nombre": "SCRABSTER HARBOUR", "pais": "UK", "lat": 58.617, "lon": -3.55}, {"nombre": "WICK", "pais": "UK", "lat": 58.459, "lon": -3.09}, {"nombre": "MERRYFIELD ARPT / RNAS", "pais": "UK", "lat": 50.963, "lon": -2.93}, {"nombre": "TEMP FOR 03075", "pais": "UK", "lat": 58.45, "lon": -3.1}, {"nombre": "LYBSTER", "pais": "UK", "lat": 58.317, "lon": -3.28}, {"nombre": "ABOYNE NO2", "pais": "UK", "lat": 57.083, "lon": -2.83}, {"nombre": "SPITTAL OF GLENSHEE", "pais": "UK", "lat": 56.767, "lon": -3.38}, {"nombre": "KIRKMICHAEL", "pais": "UK", "lat": 56.717, "lon": -3.51}, {"nombre": "INCHMARLO", "pais": "UK", "lat": 57.067, "lon": -2.53}, {"nombre": "INVERBERVIE NO.2", "pais": "UK", "lat": 56.85, "lon": -2.26}, {"nombre": "USAN", "pais": "UK", "lat": 56.683, "lon": -2.45}, {"nombre": "WINDY HEAD", "pais": "UK", "lat": 57.633, "lon": -2.23}, {"nombre": "DYCE", "pais": "UK", "lat": 57.202, "lon": -2.19}, {"nombre": "PETERHEAD HARBOUR", "pais": "UK", "lat": 57.5, "lon": -1.76}, {"nombre": "FRASERBURGH (LGT-H)", "pais": "UK", "lat": 57.683, "lon": -2.0}, {"nombre": "ROSEHEARTY", "pais": "UK", "lat": 57.7, "lon": -2.11}, {"nombre": "BRIDGE OF CLAY", "pais": "UK", "lat": 56.65, "lon": -3.38}, {"nombre": "ENOCHDHU", "pais": "UK", "lat": 56.75, "lon": -6.88}, {"nombre": "TIREE", "pais": "UK", "lat": 56.499, "lon": -6.86}, {"nombre": "ORSAY (LGT-H)", "pais": "UK", "lat": 55.667, "lon": -6.5}, {"nombre": "ISLAY: PORT ELLEN", "pais": "UK", "lat": 55.683, "lon": -6.25}, {"nombre": "ISLAY (PORT ELLEN)", "pais": "UK", "lat": 55.683, "lon": -6.25}, {"nombre": "ISLAY (PORT ELLEN)", "pais": "UK", "lat": 55.683, "lon": -6.25}, {"nombre": "RHUVAAL", "pais": "UK", "lat": 55.917, "lon": -6.13}, {"nombre": "DHU LOCH", "pais": "UK", "lat": 55.817, "lon": -5.1}, {"nombre": "MACHRIHANISH", "pais": "UK", "lat": 55.433, "lon": -5.7}, {"nombre": "OBAN", "pais": "UK", "lat": 56.417, "lon": -5.46}, {"nombre": "DALMALLY  STRONMILCHAN", "pais": "UK", "lat": 56.4, "lon": -5.0}, {"nombre": "CORSEWALL PT. (LH)", "pais": "UK", "lat": 55.0, "lon": -5.15}, {"nombre": "PORTPATRICK", "pais": "UK", "lat": 54.85, "lon": -5.13}, {"nombre": "LOCHRANZA NO3", "pais": "UK", "lat": 55.7, "lon": -5.3}, {"nombre": "KILDONAN", "pais": "UK", "lat": 55.433, "lon": -5.1}, {"nombre": "PLADDA (LGT-H)", "pais": "UK", "lat": 55.417, "lon": -5.11}, {"nombre": "ARDROSSAN", "pais": "UK", "lat": 55.65, "lon": -4.81}, {"nombre": "WEST FREUGH", "pais": "UK", "lat": 54.85, "lon": -4.95}, {"nombre": "MULL OF GALLOWAY LH", "pais": "UK", "lat": 54.633, "lon": -4.85}, {"nombre": "WEST FREUGH (AUT)", "pais": "UK", "lat": 54.85, "lon": -4.95}, {"nombre": "SLOY", "pais": "UK", "lat": 56.25, "lon": -4.71}, {"nombre": "GLASGOW BISHOPTON", "pais": "UK", "lat": 55.9, "lon": -4.53}, {"nombre": "PRESTWICK", "pais": "UK", "lat": 55.509, "lon": -4.58}, {"nombre": "PRESTWICK RNAS", "pais": "UK", "lat": 55.517, "lon": -4.58}, {"nombre": "WHITHORN", "pais": "UK", "lat": 54.7, "lon": -4.41}, {"nombre": "GREENOCK MRCC", "pais": "UK", "lat": 55.967, "lon": -4.8}, {"nombre": "SAUGHALL", "pais": "UK", "lat": 55.6, "lon": -4.21}, {"nombre": "CAMPBELTOWN", "pais": "UK", "lat": 55.437, "lon": -5.68}, {"nombre": "GLASGOW", "pais": "UK", "lat": 55.872, "lon": -4.43}, {"nombre": "MAGNUS OIL PLATFORM", "pais": "UK", "lat": 61.617, "lon": 1.3}, {"nombre": "BRUCE OIL PLATFORM", "pais": "UK", "lat": 59.733, "lon": 1.66}, {"nombre": "HARDING OIL PLATFORM", "pais": "UK", "lat": 59.267, "lon": 1.5}, {"nombre": "MILLER OIL PLATFORM", "pais": "UK", "lat": 58.717, "lon": 1.4}, {"nombre": "ANDREW OIL PLATFORM", "pais": "UK", "lat": 58.033, "lon": 1.4}, {"nombre": "MUNGO OIL PLATFORM", "pais": "UK", "lat": 57.367, "lon": 1.98}, {"nombre": "MARNOCK OIL PLATFORM", "pais": "UK", "lat": 57.283, "lon": 1.65}, {"nombre": "RAVENSPURN N OIL PLATFORM", "pais": "UK", "lat": 54.017, "lon": 1.1}, {"nombre": "WEST SOLE OIL PLATFORM", "pais": "UK", "lat": 53.7, "lon": 1.13}, {"nombre": "SCHIEHALLION FPSO OIL PLATFOR", "pais": "UK", "lat": 60.35, "lon": -4.05}, {"nombre": "CLAIR OIL PLATFORM", "pais": "UK", "lat": 60.683, "lon": -2.53}, {"nombre": "CLEETON OIL PLATFORM", "pais": "UK", "lat": 54.033, "lon": 0.71}, {"nombre": "KILLIN", "pais": "UK", "lat": 56.483, "lon": -4.35}, {"nombre": "STRATHALLEN AIRFIELD", "pais": "UK", "lat": 56.317, "lon": -3.73}, {"nombre": "GLASGOW WEA. CEN.", "pais": "UK", "lat": 55.867, "lon": -4.26}, {"nombre": "GLENLEE", "pais": "UK", "lat": 55.1, "lon": -4.18}, {"nombre": "GLEN OGLE", "pais": "UK", "lat": 56.417, "lon": -4.31}, {"nombre": "BECAME STN 031491", "pais": "UK", "lat": 56.067, "lon": -4.05}, {"nombre": "CRAWFORDJOHN", "pais": "UK", "lat": 55.5, "lon": -3.76}, {"nombre": "SALSBURGH", "pais": "UK", "lat": 55.861, "lon": -3.87}, {"nombre": "DUNDRENNAN", "pais": "UK", "lat": 54.8, "lon": -4.0}, {"nombre": "DUMFRIES/DRUNGANS", "pais": "UK", "lat": 55.05, "lon": -3.65}, {"nombre": "DRUMALBIN", "pais": "UK", "lat": 55.617, "lon": -3.73}, {"nombre": "PITREAVIE", "pais": "UK", "lat": 56.05, "lon": -3.41}, {"nombre": "PERTH/SCONE", "pais": "UK", "lat": 56.433, "lon": -3.36}, {"nombre": "PERTH/SCONE", "pais": "UK", "lat": 56.433, "lon": -3.36}, {"nombre": "PERTH/SCONE", "pais": "UK", "lat": 56.45, "lon": -3.36}, {"nombre": "CHARTERHALL", "pais": "UK", "lat": 55.7, "lon": -2.38}, {"nombre": "INCHKEITH", "pais": "UK", "lat": 56.033, "lon": -3.13}, {"nombre": "EDINBURGH", "pais": "UK", "lat": 55.95, "lon": -3.37}, {"nombre": "EDDLESTON", "pais": "UK", "lat": 55.7, "lon": -3.21}, {"nombre": "ESKDALEMUIR", "pais": "UK", "lat": 55.317, "lon": -3.2}, {"nombre": "DUNDEE", "pais": "UK", "lat": 56.452, "lon": -3.02}, {"nombre": "BIGGAR", "pais": "UK", "lat": 55.6, "lon": -3.55}, {"nombre": "SPADEADAM", "pais": "UK", "lat": 55.05, "lon": -2.55}, {"nombre": "EDINBURGH GOGARBANK", "pais": "UK", "lat": 55.933, "lon": -3.35}, {"nombre": "BASS ROCK (LGT-H)", "pais": "UK", "lat": 56.083, "lon": -2.63}, {"nombre": "GALASHIELS", "pais": "UK", "lat": 55.6, "lon": -2.9}, {"nombre": "SHANWELL", "pais": "UK", "lat": 56.433, "lon": -2.86}, {"nombre": "LEUCHARS", "pais": "UK", "lat": 56.373, "lon": -2.86}, {"nombre": "FIFE NESS", "pais": "UK", "lat": 56.3, "lon": -2.58}, {"nombre": "CARTERHOUSE", "pais": "UK", "lat": 55.367, "lon": -2.51}, {"nombre": "BELL ROCK (LGT-H)", "pais": "UK", "lat": 56.433, "lon": -2.4}, {"nombre": "ST. ABB'S HEAD (LH)", "pais": "UK", "lat": 55.917, "lon": -2.13}, {"nombre": "SEAHOUSES", "pais": "UK", "lat": 55.583, "lon": -1.65}, {"nombre": "ISLE OF MAN", "pais": "UK", "lat": 54.083, "lon": -4.62}, {"nombre": "CALF OF MAN (AUX)", "pais": "IM", "lat": 54.05, "lon": -4.83}, {"nombre": "SNAEFELL-ISLE", "pais": "UK", "lat": 54.267, "lon": -4.46}, {"nombre": "POINT OF AYRE (LH)", "pais": "IM", "lat": 54.417, "lon": -4.36}, {"nombre": "DRUMBURGH", "pais": "UK", "lat": 54.933, "lon": -3.15}, {"nombre": "ST BEES HEAD NO.2", "pais": "UK", "lat": 54.517, "lon": -3.6}, {"nombre": "ST. BEES HEAD (LH)", "pais": "UK", "lat": 54.517, "lon": -3.63}, {"nombre": "KESWICK", "pais": "UK", "lat": 54.617, "lon": -3.16}, {"nombre": "ESKMEALS", "pais": "UK", "lat": 54.317, "lon": -3.4}, {"nombre": "WALNEY ISLAND", "pais": "UK", "lat": 54.131, "lon": -3.26}, {"nombre": "WARTON", "pais": "UK", "lat": 53.745, "lon": -2.88}, {"nombre": "ASPATRIA", "pais": "UK", "lat": 54.767, "lon": -3.31}, {"nombre": "BROMFIELD", "pais": "UK", "lat": 54.8, "lon": -3.28}, {"nombre": "CARLISLE", "pais": "UK", "lat": 54.933, "lon": -2.96}, {"nombre": "CAUSEWAY FOOT", "pais": "UK", "lat": 54.583, "lon": -3.08}, {"nombre": "CARLISLE", "pais": "UK", "lat": 54.938, "lon": -2.8}, {"nombre": "RYDAL", "pais": "UK", "lat": 54.45, "lon": -2.98}, {"nombre": "SPADEADAM NO2", "pais": "UK", "lat": 55.05, "lon": -2.55}, {"nombre": "SHAP", "pais": "UK", "lat": 54.5, "lon": -2.68}, {"nombre": "WARCOP RANGE", "pais": "UK", "lat": 54.567, "lon": -2.41}, {"nombre": "GREAT DUN FELL NO2", "pais": "UK", "lat": 54.683, "lon": -2.45}, {"nombre": "WHINS POND (AUX)", "pais": "UK", "lat": 54.667, "lon": -2.7}, {"nombre": "GREAT DUN FELL", "pais": "UK", "lat": 54.7, "lon": -2.45}, {"nombre": "REDESDALE CAMP", "pais": "UK", "lat": 55.283, "lon": -2.28}, {"nombre": "RIBBLEHEAD", "pais": "UK", "lat": 54.217, "lon": -2.33}, {"nombre": "BOLTSHOPE PARK", "pais": "UK", "lat": 54.817, "lon": -2.08}, {"nombre": "FOREST", "pais": "UK", "lat": 54.65, "lon": -2.2}, {"nombre": "ALBEMARLE", "pais": "UK", "lat": 55.017, "lon": -1.86}, {"nombre": "BOULMER", "pais": "UK", "lat": 55.424, "lon": -1.6}, {"nombre": "LONG FRAMLINGTON", "pais": "UK", "lat": 55.3, "lon": -1.8}, {"nombre": "BURNHOPE", "pais": "UK", "lat": 54.817, "lon": -1.71}, {"nombre": "NEWCASTLE/WOOLSING.", "pais": "UK", "lat": 55.033, "lon": -1.68}, {"nombre": "NEWCASTLE", "pais": "UK", "lat": 55.038, "lon": -1.69}, {"nombre": "NEWCASTLE WX CENTRE", "pais": "UK", "lat": 54.967, "lon": -1.61}, {"nombre": "NEWCASTLE WEATHER CENTRE", "pais": "UK", "lat": 54.983, "lon": -1.6}, {"nombre": "SUNDERLAND UNIVERSITY", "pais": "UK", "lat": 54.983, "lon": -1.63}, {"nombre": "LEEMING", "pais": "UK", "lat": 54.292, "lon": -1.53}, {"nombre": "DISHFORTH", "pais": "UK", "lat": 54.137, "lon": -1.42}, {"nombre": "TYNEMOUTH", "pais": "UK", "lat": 55.017, "lon": -1.41}, {"nombre": "DURHAM TEES VALLEY AIRPORT", "pais": "UK", "lat": 54.509, "lon": -1.42}, {"nombre": "TOPCLIFFE", "pais": "UK", "lat": 54.206, "lon": -1.38}, {"nombre": "TOPCLIFFE", "pais": "UK", "lat": 54.2, "lon": -1.38}, {"nombre": "LINTON ON OUSE", "pais": "UK", "lat": 54.049, "lon": -1.25}, {"nombre": "TEESMOUTH", "pais": "UK", "lat": 54.65, "lon": -1.13}, {"nombre": "TEESMOUTH (AUX)", "pais": "UK", "lat": 54.62, "lon": -1.13}, {"nombre": "LOFTUS", "pais": "UK", "lat": 54.567, "lon": -0.86}, {"nombre": "CATTERICK", "pais": "UK", "lat": 54.367, "lon": -1.61}, {"nombre": "FYLINGDALES", "pais": "UK", "lat": 54.367, "lon": -0.66}, {"nombre": "WHITBY", "pais": "UK", "lat": 54.483, "lon": -0.6}, {"nombre": "FLAMBOROUGH HEAD", "pais": "UK", "lat": 54.117, "lon": -0.08}, {"nombre": "BRIDLINGTON MRSC", "pais": "UK", "lat": 54.1, "lon": -0.16}, {"nombre": "COWDEN", "pais": "UK", "lat": 53.85, "lon": -0.1}, {"nombre": "MONA", "pais": "UK", "lat": 53.267, "lon": -4.36}, {"nombre": "VALLEY", "pais": "UK", "lat": 53.248, "lon": -4.53}, {"nombre": "AMLWCH", "pais": "UK", "lat": 53.383, "lon": -4.36}, {"nombre": "CAPEL CURIG NO3", "pais": "UK", "lat": 53.1, "lon": -3.93}, {"nombre": "SNOWDON SUMMIT", "pais": "UK", "lat": 53.067, "lon": -4.08}, {"nombre": "YSPYTTY IFAN", "pais": "UK", "lat": 53.033, "lon": -3.7}, {"nombre": "HOLYHEAD", "pais": "UK", "lat": 53.317, "lon": -4.61}, {"nombre": "RHYL", "pais": "UK", "lat": 53.333, "lon": -3.5}, {"nombre": "RHYL NO2", "pais": "UK", "lat": 53.25, "lon": -3.5}, {"nombre": "MOEL-Y-CRIO", "pais": "UK", "lat": 53.217, "lon": -3.21}, {"nombre": "FORMBY (DEAD)", "pais": "UK", "lat": 53.55, "lon": -3.1}, {"nombre": "CROSBY", "pais": "UK", "lat": 53.5, "lon": -3.06}, {"nombre": "WOODVALE(RAF)", "pais": "UK", "lat": 52.567, "lon": -3.05}, {"nombre": "BLACKPOOL", "pais": "UK", "lat": 53.772, "lon": -3.02}, {"nombre": "FLEETWOOD", "pais": "UK", "lat": 53.917, "lon": -3.03}, {"nombre": "HAWARDEN", "pais": "UK", "lat": 53.178, "lon": -2.97}, {"nombre": "AUGHTON", "pais": "UK", "lat": 53.55, "lon": -2.91}, {"nombre": "LIVERPOOL AIRPORT", "pais": "UK", "lat": 53.333, "lon": -2.85}, {"nombre": "LIVERPOOL", "pais": "UK", "lat": 53.334, "lon": -2.85}, {"nombre": "WINTER HILL", "pais": "UK", "lat": 53.617, "lon": -2.51}, {"nombre": "LEEK THORNCLIFFE", "pais": "UK", "lat": 53.133, "lon": -1.98}, {"nombre": "MANCHESTER", "pais": "UK", "lat": 53.354, "lon": -2.27}, {"nombre": "MANCHESTER/BARTON", "pais": "UK", "lat": 53.483, "lon": -2.25}, {"nombre": "CELLARHEAD", "pais": "UK", "lat": 53.033, "lon": -2.08}, {"nombre": "SKIPTON NO2", "pais": "UK", "lat": 53.967, "lon": -2.03}, {"nombre": "HOLME MOSS (AUT)", "pais": "UK", "lat": 53.533, "lon": -1.88}, {"nombre": "FLASH-IN-STAFFORD", "pais": "UK", "lat": 53.2, "lon": -1.96}, {"nombre": "HOLME MOSS", "pais": "UK", "lat": 53.533, "lon": -1.86}, {"nombre": "HUDDERSFIELD/OAKES", "pais": "UK", "lat": 53.65, "lon": -1.83}, {"nombre": "BINGLEY NO.2", "pais": "UK", "lat": 53.817, "lon": -1.86}, {"nombre": "EMLEY MOOR", "pais": "UK", "lat": 53.617, "lon": -1.66}, {"nombre": "EMLEY MOOR NO 2", "pais": "UK", "lat": 53.6, "lon": -1.66}, {"nombre": "LEEDS BRADFORD", "pais": "UK", "lat": 53.866, "lon": -1.66}, {"nombre": "PENZANCE HELIPORT", "pais": "UK", "lat": 50.12, "lon": -5.52}, {"nombre": "NEWQUAY CORNWALL", "pais": "UK", "lat": 50.433, "lon": -4.98}, {"nombre": "LEEDS WEATHER CTR", "pais": "UK", "lat": 53.8, "lon": -1.55}, {"nombre": "SHEFFIELD CITY", "pais": "UK", "lat": 53.394, "lon": -1.38}, {"nombre": "WOODFORD", "pais": "UK", "lat": 53.333, "lon": -2.15}, {"nombre": "ROSTHERNE NO 2", "pais": "UK", "lat": 53.367, "lon": -2.38}, {"nombre": "NOTTINGHAM/WATNALL", "pais": "UK", "lat": 53.0, "lon": -1.25}, {"nombre": "CHURCH FENTON", "pais": "UK", "lat": 53.834, "lon": -1.19}, {"nombre": "FINNINGLEY(RAF)", "pais": "UK", "lat": 53.483, "lon": -1.0}, {"nombre": "SYERSTON", "pais": "UK", "lat": 53.017, "lon": -0.91}, {"nombre": "HEMSWELL", "pais": "UK", "lat": 53.4, "lon": -0.56}, {"nombre": "BARKSTON HEATH", "pais": "UK", "lat": 52.962, "lon": -0.56}, {"nombre": "SCAMPTON", "pais": "UK", "lat": 53.308, "lon": -0.55}, {"nombre": "HUMBERSIDE", "pais": "UK", "lat": 53.574, "lon": -0.35}, {"nombre": "WADDINGTON", "pais": "UK", "lat": 53.166, "lon": -0.52}, {"nombre": "CRANWELL", "pais": "UK", "lat": 53.03, "lon": -0.48}, {"nombre": "LECONFIELD", "pais": "UK", "lat": 53.867, "lon": -0.43}, {"nombre": "LECONFIELD", "pais": "UK", "lat": 53.883, "lon": -0.43}, {"nombre": "LECONFIELD (AUT)", "pais": "UK", "lat": 53.867, "lon": -0.43}, {"nombre": "DONNA NOOK", "pais": "UK", "lat": 53.467, "lon": 0.06}, {"nombre": "DONNA NOOK RAF", "pais": "UK", "lat": 53.475, "lon": 0.15}, {"nombre": "NORTH COATES (AUT)", "pais": "UK", "lat": 53.5, "lon": 0.06}, {"nombre": "EASINGTON", "pais": "UK", "lat": 53.667, "lon": 0.11}, {"nombre": "BINBROOK(RAF)", "pais": "UK", "lat": 53.45, "lon": -0.2}, {"nombre": "INNER DOWSING (LH)", "pais": "UK", "lat": 53.333, "lon": 0.56}, {"nombre": "CONINGSBY", "pais": "UK", "lat": 53.093, "lon": -0.16}, {"nombre": "WAINFLEET (AUT)", "pais": "UK", "lat": 53.083, "lon": 0.26}, {"nombre": "DONNA NOOK (AUT)", "pais": "UK", "lat": 53.383, "lon": 0.21}, {"nombre": "GIBRALTAR POINT", "pais": "UK", "lat": 53.1, "lon": 0.31}, {"nombre": "SPURN HEAD (POINT)", "pais": "UK", "lat": 53.617, "lon": 0.15}, {"nombre": "SPURN HEAD (POINT)", "pais": "UK", "lat": 53.567, "lon": 0.11}, {"nombre": "HUMBER (LGT-VSL)", "pais": "UK", "lat": 53.617, "lon": 0.36}, {"nombre": "DOWSING (LGT-VSL)", "pais": "UK", "lat": 53.567, "lon": 0.83}, {"nombre": "BARDSEY ISL (LGT-H)", "pais": "UK", "lat": 52.75, "lon": -4.8}, {"nombre": "PORTHDYNLLAEN", "pais": "UK", "lat": 52.95, "lon": -4.56}, {"nombre": "MYNYDD RHIW", "pais": "UK", "lat": 52.817, "lon": -4.63}, {"nombre": "NANTMOR", "pais": "UK", "lat": 53.0, "lon": -4.08}, {"nombre": "ABERDOVEY", "pais": "UK", "lat": 52.55, "lon": -4.06},